BST8;BST_NAME;LAND;LAT;LON
11759;;;;
28100;SWIEBODZIN;;52.247296;15.533572
254581;;;;
824532;;;;
999995;;;;
1135301;MALA LODINA;;;
1940601;GENT RODENHUZE VOLVO;;;
3034603;SOCHACZEW;;52.229337;20.238359
3432203;FLEMALLE-ANNEXE AM P;;;
3842203;TERTRE POLYOL;;;
4572404;KALNA VODA;;;
5007005;ZAJACZKOWO TCZEWSKIE;;;
5259705;ANTW WASSL-ZUID TM;;;
5555805;HORICE V PODKRKONOSI;;;
5836205;CLABECQ DUFERCO;;;
5940205;SAMUIL;;;
6295006;MAUBEUGE;;50.280228;3.9674
7024307;LIMBERG-MAISSAU;;48.57305;15.82976
7345207;PONT-DE-LA-DEULE;;;
7939207;LANGERBRUGGE KRONOS;;;
8096834;SASSNITZ MUKRAN ESB;;54.498264;13.589532
8202804;SASSNITZ-MUKRAN;;54.498264;13.589532
9133009;ABAUJSZANTO;;;
10000000;;FINNLAND;;
10000018;HELSINKI;FINNLAND;60.179985;24.928598
10000075;HELSINKI GR;FINNLAND;60.169856;24.938379
10000109;PASILA;FINNLAND;60.198981;24.932845
10000117;LAENSISATAMA;FINNLAND;60.164384;24.910161
10000125;LAENSISATAMA GR;FINNLAND;;
10000141;SOERNAEINEN;FINNLAND;60.186422;24.968768
10000182;TIKKURILA;FINNLAND;60.287584;25.040178
10000208;KERAVA;FINNLAND;60.400988;25.102038
10000257;JAERVENPAEAE;FINNLAND;60.473944;25.090408
10000307;HYVINKAEAE;FINNLAND;60.400661;24.88637
10000406;RIIHIMAEKI;FINNLAND;60.738494;24.772893
10000422;RYTTYLAE;FINNLAND;61.440169;23.906684
10000448;TURENKI;FINNLAND;60.920089;24.646005
10000471;HAEMEENLINNA;FINNLAND;60.992879;24.459024
10000554;SALO;FINNLAND;60.390937;23.135481
10000596;POHJANKURU;FINNLAND;60.099787;23.550639
10000604;KARJAA;FINNLAND;60.07139;23.661911
10000679;KAUNIAINEN;FINNLAND;60.211724;24.728878
10000703;RAPASAARI SATAWA;FINNLAND;;
10000737;HANKO;FINNLAND;59.831448;22.984242
10000752;LAPPOHJA;FINNLAND;59.902844;23.241803
10000778;MUSTOLA SATAMA;FINNLAND;65.251453;29.24091
10000794;KIRKNIEMI;FINNLAND;60.181987;23.9496
10000810;LOHJA;FINNLAND;60.251176;24.067471
10000885;RAJAMAEKI;FINNLAND;60.52563;24.762079
10001008;LAHTI;FINNLAND;60.984554;25.661406
10001057;UUSIKYLAE;FINNLAND;;
10001065;LOVIISA SATAMA;FINNLAND;;
10001123;VIERUMAEKI;FINNLAND;61.104581;25.932038
10001131;HEINOLA;FINNLAND;61.20423;26.038101
10001214;UUSIKAUPUNKI;FINNLAND;60.800202;21.422542
10001248;NAANTALI;FINNLAND;60.469376;22.028842
10001255;RAISIO;FINNLAND;60.485906;22.168957
10001305;TURKU/ABO;FINNLAND;60.46234;22.1501
10001313;TURKU-PANSIO;FINNLAND;60.447742;22.155983
10001347;TURKU GR;FINNLAND;60.451813;22.26663
10001354;TURKU SATAMA;FINNLAND;60.4483;22.1336
10001396;KYROE;FINNLAND;;
10001446;HUMPPILA;FINNLAND;60.924226;23.371103
10001503;TOIJALA;FINNLAND;61.16559;23.867395
10001537;VALKEAKOSKI;FINNLAND;61.264993;24.031037
10001552;VIIALA;FINNLAND;61.210615;23.767482
10001602;TAMPERE;FINNLAND;61.494309;23.755501
10001651;RAUMA;FINNLAND;61.131961;21.507939
10001685;KAUTTUA;FINNLAND;61.115591;22.16048
10001701;KOKEMAEKI;FINNLAND;61.258344;22.353935
10001743;AEETSAE;FINNLAND;61.293439;22.705135
10001768;VAMMALA;FINNLAND;61.344405;22.915133
10001818;NOKIA;FINNLAND;61.480309;23.501203
10001834;LIELAHTI;FINNLAND;61.517461;23.665697
10001859;MESSUKYLAE;FINNLAND;61.485105;23.844258
10001909;ORIVESI;FINNLAND;61.67744;24.357408
10001933;KORKEAKOSKI;FINNLAND;61.797532;24.369829
10001966;VILPPULA;FINNLAND;62.02111;24.509583
10001982;MAENTTAE;FINNLAND;62.03004;24.623158
10001990;KOLHO;FINNLAND;62.140044;24.499086
10002006;HAAPAMAEKI;FINNLAND;62.25191;24.454465
10002048;JAEMSAE;FINNLAND;61.863826;25.189617
10002055;JAEMSAENKOSKI;FINNLAND;61.919012;25.169522
10002154;PARKANO;FINNLAND;62.011788;23.025499
10002188;HARJAVALTA;FINNLAND;61.316633;22.140151
10002204;PORI;FINNLAND;61.485139;21.797418
10002238;MAENTYLUOTO;FINNLAND;61.591877;21.482277
10002261;KANKAANPAEAE;FINNLAND;61.798833;22.403183
10002352;KEURUU;FINNLAND;62.255985;24.707859
10002402;JYVAESKYLAE;FINNLAND;62.242603;25.747257
10002469;LIEVESTUORE;FINNLAND;62.252461;26.090377
10002519;SUOLAHTI;FINNLAND;62.567915;25.853588
10002527;AEAENEKOSKI;FINNLAND;62.603802;25.727755
10002543;SAARIJAERVI;FINNLAND;62.706698;25.255361
10002675;KASKINEN;FINNLAND;62.382433;21.227835
10002741;KOSKENKORVA;FINNLAND;62.690982;22.453929
10002808;SEINAEJOKI;FINNLAND;62.794543;22.827826
10002881;VAASA;FINNLAND;63.095089;21.616456
10002915;VASKILUOTO;FINNLAND;63.089043;21.577698
10002949;TERVAJOKI;FINNLAND;63.001365;22.147176
10002998;KAUHAVA;FINNLAND;63.127799;23.013661
10003004;HAERMAE;FINNLAND;63.130743;22.27598
10003061;PIETARSAARI;FINNLAND;63.674244;22.712569
10003087;LEPPAELUOTO;FINNLAND;61.313271;21.542872
10003129;KOKKOLA;FINNLAND;63.828313;23.089595
10003152;YKSPIHLAJA;FINNLAND;63.846507;23.039199
10003178;KANNUS;FINNLAND;63.900413;23.916745
10003202;YLIVIESKA;FINNLAND;64.072115;24.534178
10003228;OULAINEN;FINNLAND;64.267616;24.815948
10003301;HAAPAJAERVI;FINNLAND;63.748662;25.318068
10003350;RAAHE;FINNLAND;64.684633;24.494856
10003376;RUUKKI;FINNLAND;64.67058;25.114656
10003392;TUIRA;FINNLAND;62.424915;26.460665
10003418;TOPPILA;FINNLAND;64.535928;28.262251
10003475;KEMI;FINNLAND;65.735568;24.565743
10003517;TORNIO;FINNLAND;65.846886;24.150236
10003582;KOLARI;FINNLAND;67.331933;23.789272
10003616;TERVOLA;FINNLAND;66.089101;24.798852
10003632;MUUROLA;FINNLAND;66.328519;25.347547
10003640;ROVANIEMI;FINNLAND;66.503948;25.729391
10003673;KEMIJAERVI;FINNLAND;66.713628;27.429206
10003699;SALLA;FINNLAND;66.832653;28.670118
10003707;OULU;FINNLAND;64.979255;25.49554
10003756;MUHOS;FINNLAND;64.810069;25.974626
10003764;UTAJAERVI;FINNLAND;64.762447;26.412332
10003798;PALTAMO;FINNLAND;64.442122;27.606324
10003830;VUOKATTI;FINNLAND;64.145777;28.268999
10003855;OTANMAEKI;FINNLAND;64.110596;27.106829
10003871;KAJAANI;FINNLAND;64.219678;27.711201
10003905;KONTIOMAEKI;FINNLAND;;
10003921;HYRYNSALMI;FINNLAND;64.679145;28.48403
10003947;AEMMAENSAARI;FINNLAND;62.194193;28.628089
10003954;TAIVALKOSKI;FINNLAND;65.57503;28.243419
10004002;PIEKSAEMAEKI;FINNLAND;62.297702;27.145816
10004036;IISVESI;FINNLAND;62.665469;27.042754
10004044;SUONENJOKI;FINNLAND;62.626091;27.122123
10004085;KUOPIO;FINNLAND;62.89797;27.678173
10004119;LUIKONLAHTI;FINNLAND;62.896412;28.728731
10004135;SIILINJAERVI;FINNLAND;63.073683;27.661883
10004143;JUANKOSKI;FINNLAND;63.066083;28.330811
10004176;KIURUVESI;FINNLAND;63.653802;26.621055
10004200;IISALMI;FINNLAND;63.557773;27.191719
10004226;SOINLAHTI;FINNLAND;63.629438;27.21396
10004242;SUKEVA;FINNLAND;63.829617;27.385061
10004275;HANKASALMI;FINNLAND;62.389441;26.436133
10004325;VARKAUS;FINNLAND;62.311882;27.87787
10004457;NIIRALA GR;FINNLAND;62.175269;30.593533
10004465;NIIRALA;FINNLAND;62.175269;30.593533
10004531;KITEE;FINNLAND;62.098438;30.138005
10004606;JOENSUU;FINNLAND;62.601016;29.763572
10004655;UIMAHARJU;FINNLAND;62.914021;30.25159
10004663;UKKOLA;FINNLAND;62.957874;30.19725
10004689;LIEKSA;FINNLAND;63.318505;30.026453
10004721;NURMES;FINNLAND;63.541885;29.13957
10004804;KOUVOLA;FINNLAND;60.867884;26.70416
10004853;KAIPIAINEN;FINNLAND;60.89759;27.121369
10004861;TAAVETTI;FINNLAND;60.918752;27.513522
10004879;LUUMAEKI;FINNLAND;60.922545;27.569314
10004911;SIMOLA;FINNLAND;60.907599;28.1488
10004929;VAINIKKALA;FINNLAND;60.866427;28.299857
10004937;VAINIKKALA GR;FINNLAND;60.866427;28.299857
10004952;LAPPEENRANTA;FINNLAND;61.051281;28.185889
10004986;LAURITSALA;FINNLAND;61.07219;28.259261
10004994;JOUTSENO;FINNLAND;61.117517;28.49323
10005009;KOMMILA;FINNLAND;62.322864;27.90013
10005025;IMATRA T;FINNLAND;61.170455;28.772067
10005041;IMATRANKOSKI;FINNLAND;61.194062;28.776184
10005074;SIMPELE;FINNLAND;61.434946;29.359341
10005108;PARIKKALA;FINNLAND;61.550187;29.502402
10005173;PUNKAHARJU;FINNLAND;61.755912;29.393064
10005199;PAEAESKYLAHTI;FINNLAND;;
10005215;SAVONLINNA;FINNLAND;61.867973;28.886384
10005223;KERIMAEKI;FINNLAND;61.91262;29.281426
10005264;HAMINA GR;FINNLAND;60.45996;25.577701
10005272;HAMINA;FINNLAND;60.572408;27.196294
10005306;INKEROINEN;FINNLAND;60.701565;26.849532
10005314;KARHULA;FINNLAND;60.911033;26.039176
10005322;KOTKA;FINNLAND;60.467476;26.941395
10005371;KUUSANKOSKI;FINNLAND;60.907005;26.624334
10005447;MAENTHYHARJU;FINNLAND;61.417613;26.880512
10005454;OTAVA;FINNLAND;61.644939;27.073023
10005462;MIKKELI;FINNLAND;61.688727;27.272146
10005579;MUSSALO;FINNLAND;60.445398;26.892386
10005603;SKOELDVIK;FINNLAND;;
10005777;KELA;FINNLAND;60.120711;24.288548
10006064;MYLLYOJA;FINNLAND;60.520237;22.34576
10006395;KALKKU;FINNLAND;61.494871;23.585864
10006569;KAIPOLA;FINNLAND;61.815841;25.235006
10006783;TORNIO GR;FINNLAND;65.844493;24.152726
10007021;TAHKOLUOTO;FINNLAND;61.633317;21.41666
10007401;HANKO GR;FINNLAND;62.123247;25.655826
10007500;RAUTARUUKKI;FINNLAND;62.176757;24.674136
10007666;VEITSILUOTO;FINNLAND;61.547773;26.716699
10007674;AJOS;FINNLAND;65.675886;24.580797
10007708;RISTIINA;FINNLAND;61.506484;27.257807
10008136;ISOKYLAE;FINNLAND;66.695074;27.558196
10008334;ROEYTTAE;FINNLAND;65.761028;24.162004
10008417;SAEYNAETSALO;FINNLAND;62.140653;25.770333
10008458;LAMMINNIEMI;FINNLAND;62.35975;23.381894
10008714;LAHNASLAMPI;FINNLAND;63.743121;24.278423
10009191;PUHOS;FINNLAND;62.085649;29.904506
10009357;PANKAKOSKI;FINNLAND;63.321048;30.146167
10009399;AROLA;FINNLAND;61.040488;21.832772
10009407;YPYKKAEVAARA;FINNLAND;65.015466;25.575727
10009415;VARTIUS;FINNLAND;64.495577;29.907499
10009498;VARTIUS GR;FINNLAND;61.553421;29.638065
10009548;KAUKOPAEAE;FINNLAND;;
10009688;TIKKURILA;FINNLAND;60.287577;25.040197
10009803;HOVINSAARI;FINNLAND;60.49028;26.902511
10013219;VUOSAARI;FINNLAND;60.20879;25.143731
10013229;VUOSAARI;FINNLAND;60.20879;25.143731
10213322;TURKU SAT/ABO.HAM;FINNLAND;60.451813;22.26663
10311050;HELSINKI/HELSINGFORS;FINNLAND;60.170878;24.93979
10316174;HANKO;FINNLAND;59.830423;22.982378
11430611;SERAING ARCELOR MIT1;FINNLAND;;
13001313;BURE CASERNE;FINNLAND;;
13026013;MALMBERGET;FINNLAND;67.173653;20.654517
13093013;MARCIANISE;FINNLAND;41.031087;14.299542
16250316;ANTW. WAASL-ZUID STZ;FINNLAND;;
20000000;;Russische Föderation;;
20008011;MAMONOWO;Russische Föderation;54.465815;19.934845
20010009;PETROZAVODSK;Russische Föderation;61.778162;34.36404
20010900;NIGOSERO;Russische Föderation;62.232549;34.285604
20011809;SEGEJA;Russische Föderation;63.73884;34.309752
20014902;KANDALAKSHA;Russische Föderation;67.170051;32.422966
20015404;KOVDOR;Russische Föderation;67.570005;30.473871
20015503;POLJARNY SORY;Russische Föderation;69.198673;33.439448
20015701;KANDALEKSCHA;Russische Föderation;67.170051;32.422966
20015800;TITAN;Russische Föderation;67.561667;33.631667
20016006;APATITY;Russische Föderation;67.577788;33.390416
20016303;OLENOGORSK;Russische Föderation;68.142461;33.257392
20018101;ZAPOLIARNAIA;Russische Föderation;;
20018408;MURMANSK;Russische Föderation;68.958524;33.08266
20020008;WYBORG;Russische Föderation;60.713953;28.757157
20020404;PRIBYLOWO;Russische Föderation;;
20027325;NEWELSK;Russische Föderation;;
20031609;KOLPINO;Russische Föderation;59.721609;30.504297
20031815;ST.PETERSBURG-GLAR.;Russische Föderation;59.93428;30.335099
20032508;PAVLOVSK;Russische Föderation;59.681198;30.444376
20033068;SANKT PETERBURG VITEBSKII;Russische Föderation;59.90789;30.3805
20034009;GATCINA;Russische Föderation;59.562463;30.106466
20035303;SANKT PETERBURG VARSHAVSKII;Russische Föderation;59.94054;30.3611
20035501;AWTOWO;Russische Föderation;;
20035600;AWTOWO-EKS.;Russische Föderation;;
20035808;NOWY PORT-LENINGRAD;Russische Föderation;54.7651;20.617722
20036020;SANKT PETERBURG;Russische Föderation;59.88444;30.4516
20036103;MELNICNYI;Russische Föderation;;
20037002;RZHEWKA;Russische Föderation;50.433736;36.989509
20037101;DACHA DOLGORUKOVA;Russische Föderation;54.320994;35.266589
20037325;NEWELSK;Russische Föderation;;
20037606;GRUSINO;Russische Föderation;;
20038000;KAPITOLOVO;Russische Föderation;60.09719;30.44892
20038208;ST.PETERSBURG-PASS-FIN;Russische Föderation;59.93428;30.335099
20038802;LEVASOVO;Russische Föderation;60.103683;30.203118
20039305;ZELENOGORSK;Russische Föderation;60.196715;29.700692
20040105;NOVGOROD-NA-VOLKHOVE;Russische Föderation;58.527203;31.250484
20047407;BOLSCHOI DWOR;Russische Föderation;;
20054890;NIKLASDORF- HIST FLOTTE;Russische Föderation;;
20055509;KRESTCY;Russische Föderation;58.241914;32.502162
20056705;DNO;Russische Föderation;57.792892;29.870315
20057000;LOKNAIA;Russische Föderation;;
20057109;SUSCEVO;Russische Föderation;57.2147;29.8485
20057406;DEDOVICHI;Russische Föderation;57.558396;29.876642
20058008;SOLCY;Russische Föderation;58.061772;30.046229
20058107;UTORGOSH;Russische Föderation;58.294257;30.025714
20058305;BATECKAIA;Russische Föderation;58.3603;29.9397
20059006;VYRICA;Russische Föderation;59.405163;30.326843
20060004;HOVRINO;Russische Föderation;;
20060202;MOSKVA OKTOBARSKAJA TOVARNAIA;Russische Föderation;55.755826;37.6173
20060301;HIMKI;Russische Föderation;55.894055;37.443949
20060806;PODSOLNECHNAIA;Russische Föderation;;
20060905;KLIN;Russische Föderation;56.333382;36.730447
20061507;KALININ/TWER;Russische Föderation;56.809765;36.010854
20062620;TASZAR;Russische Föderation;;
20062703;VYSHNII VOLOCHEK;Russische Föderation;57.583603;34.564259
20063107;RJEW-BELORUSSKI;Russische Föderation;;
20064105;TORJOK;Russische Föderation;57.035934;34.969076
20065300;ZAPADNIA DVINA;Russische Föderation;56.263568;32.075993
20066001;VELIKIE LUKI;Russische Föderation;56.339609;30.531475
20066100;SEBEJ;Russische Föderation;56.288925;28.467939
20066605;NOVOSOKOLNIKI;Russische Föderation;56.343741;30.171652
20066902;KLIASTICA-EKS.;Russische Föderation;;
20067108;NEVEL II;Russische Föderation;56.0188;29.934375
20067132;EZERISHE;Russische Föderation;;
20067405;ZAWEREJE-EKS.;Russische Föderation;;
20067702;TOROPEC;Russische Föderation;56.501204;31.639144
20070003;BEREZKI;Russische Föderation;56.108772;37.033734
20070508;PSKOV TOV.;Russische Föderation;57.816699;28.334473
20070607;PSKOV-PASSAJIRSKII;Russische Föderation;57.8125;28.353787
20072009;LUGA I;Russische Föderation;58.740819;29.85059
20072504;SIWERSKAJA;Russische Föderation;;
20073304;IVANGOROD-NARVSKIJ;Russische Föderation;59.371564;28.218812
20074500;UST-LUGA;Russische Föderation;59.653383;28.269693
20075408;ORANIENBAUM;Russische Föderation;59.933333;29.766667
20076802;LUZHSKAYA (PAROM. EK;Russische Föderation;59.393402;28.865074
20076809;;Russische Föderation;;
20077909;PYTALOVO;Russische Föderation;57.068579;27.9161
20078501;SKANGALI;Russische Föderation;56.532463;27.462397
20100008;KALININGRAD;Russische Föderation;54.710426;20.452214
20100099;KALININGRAD;Russische Föderation;54.710263;20.481307
20100404;NESTEROW-EKS.;Russische Föderation;54.630547;22.569125
20100503;NESTEROV;Russische Föderation;54.633874;22.565513
20102707;MAMONOVO;Russische Föderation;54.683488;27.743901
20103408;BALTIJSK/PION.KUR.;Russische Föderation;54.652312;19.921869
20104500;BALTIYSK (PAROM, EKSP.3 STR.);Russische Föderation;54.659122;19.922895
20104505;BALTIJSK (PAROM, EKSP.3 STR.);Russische Föderation;54.668105;19.92689
20131706;VYSOKO LITOVSK;Russische Föderation;57.482618;39.860649
20160606;GORODOK;Russische Föderation;44.421915;39.38184
20164103;GUDOGAJ;Russische Föderation;;
20170001;SMOLENSK;Russische Föderation;54.790311;32.050366
20170100;SMOLENSK;Russische Föderation;54.718456;32.121983
20170803;JELNJA;Russische Föderation;54.579084;33.178707
20171405;KRASNOJE GRENZE;Russische Föderation;54.494873;21.519542
20172007;RUDNIA-EKS.;Russische Föderation;54.948864;31.05708
20172304;IARCEVO;Russische Föderation;54.9443;32.8251
20172502;SAFONOWO;Russische Föderation;55.108106;33.237745
20173401;IZDESHKOVO;Russische Föderation;55.144629;33.626831
20173609;SEMLEVO;Russische Föderation;55.043722;33.967945
20174102;VIAZMA-NOVOTORJSKAIA;Russische Föderation;55.192903;34.296671
20174300;VJAZMA;Russische Föderation;55.122102;34.421536
20175406;GAGARIN;Russische Föderation;55.552886;34.996654
20176008;SOCHNO;Russische Föderation;;
20178509;JUKOVKA;Russische Föderation;53.535085;33.728044
20180000;BEKASOVO-SORTIROVOCHNOE;Russische Föderation;55.10095;36.649199
20180208;MOSKVA OTCHA-KOVO 1;Russische Föderation;55.755826;37.6173
20180505;SOLNECHNAIA;Russische Föderation;57.823764;60.056401
20180604;WNUKOWO;Russische Föderation;55.599648;37.271234
20180802;TOLSTOPALCEWO;Russische Föderation;;
20181107;SELJATINO;Russische Föderation;55.514582;36.976057
20181404;KRESTY;Russische Föderation;55.263403;37.10349
20181701;KUNZEVO;Russische Föderation;55.752981;37.386563
20181800;KUNZEWO II;Russische Föderation;55.698011;37.658875
20182204;ODINZOVO;Russische Föderation;55.673374;37.281857
20182303;GOLITZINO;Russische Föderation;;
20183202;MOJAJSK;Russische Föderation;55.4634;36.0785
20183301;NARA;Russische Föderation;55.056416;37.175835
20183707;OBNINSKOJE;Russische Föderation;;
20183905;MALOJARISLAVL;Russische Föderation;;
20184101;SUHODREV;Russische Föderation;54.806746;36.319415
20184507;;Russische Föderation;;
20185207;SUHINICHI-GL;Russische Föderation;53.9775;35.1491
20186205;FAJANSOVAIA;Russische Föderation;;
20188101;PERSPEKTIVNAYA;Russische Föderation;55.576655;37.140254
20188102;PERSPEKTIVNAYA;Russische Föderation;55.066297;36.723904
20188201;KALUGA;Russische Föderation;54.551858;36.285097
20188607;AZAROVO;Russische Föderation;54.565544;36.244569
20190009;LIUBLINO-SORTIROV.;Russische Föderation;;
20190207;SERPUHOV;Russische Föderation;54.917956;37.422996
20190306;SERPUHOV-VETKA;Russische Föderation;54.917956;37.422996
20190801;GRIVNO;Russische Föderation;55.348989;37.570096
20190900;PODOLSK;Russische Föderation;55.431245;37.545765
20191007;SILIKATNAIA;Russische Föderation;;
20191106;SCHERBINKA;Russische Föderation;;
20191205;BUTOVO;Russische Föderation;55.545646;37.589833
20191403;KRASNYI STROITEL;Russische Föderation;54.570309;31.442159
20191502;MOSKVA TOV-KURSKAIA;Russische Föderation;55.755826;37.6173
20191908;KASCHIRA;Russische Föderation;54.843831;38.186221
20192104;STUPINO;Russische Föderation;54.904044;38.080351
20192500;SOTNIKOVO;Russische Föderation;56.02337;47.783275
20192609;MIHNEVO;Russische Föderation;;
20192807;BELYE STOLBYBELYE STOLBY;Russische Föderation;55.333534;37.850812
20192906;DOMODEDOVO;Russische Föderation;55.443023;37.747817
20193300;BIRULIEVO TOV.;Russische Föderation;;
20193409;KOLOMENSKOJE;Russische Föderation;51.437398;39.669237
20193508;MOSKVA-TOVA-PAVELETSKAIA;Russische Föderation;55.755826;37.6173
20193516;MOSKVA-PASS-PAVELETSKAIA;Russische Föderation;55.731266;37.636263
20193805;PEROVO;Russische Föderation;60.682847;28.943779
20194001;MOSKVA TOV RIAZANSKAIA;Russische Föderation;55.755826;37.6173
20194010;MOSKVA MITKOVO;Russische Föderation;55.755826;37.6173
20194100;MOSKVA MITKOVO;Russische Föderation;55.755826;37.6173
20194209;LIUBERCY 1;Russische Föderation;;
20194308;LIUBERCY 2;Russische Föderation;;
20194407;MALCHIKI;Russische Föderation;;
20194803;BYKOWO;Russische Föderation;55.622277;38.064129
20194902;RAMENSKOE;Russische Föderation;55.568573;38.221269
20195404;LOSINOOSTROVSKAIA;Russische Föderation;;
20195602;MOSKVA TOVARN-IAROSLAVSK;Russische Föderation;55.755826;37.6173
20195800;BESKUDNIKOVO;Russische Föderation;55.882713;37.567768
20196006;MOSKVA BUTYRSKAIA;Russische Föderation;55.800838;37.583673
20196048;MOSKVA;Russische Föderation;55.600834;37.464563
20196105;MOSKVA RIJSKAIA;Russische Föderation;55.755826;37.6173
20196303;PODMOSKOVNAIA;Russische Föderation;;
20196402;TUCHINO MOSK;Russische Föderation;;
20196501;PAVSHINO;Russische Föderation;57.846587;28.368598
20196600;NAHABINO;Russische Föderation;55.845567;37.170791
20196808;DEDOVSK;Russische Föderation;55.862841;37.121705
20197202;NOVOIERUSALIMSKAIA;Russische Föderation;;
20197905;MOSKVA-SORT-KIEVSKAIA;Russische Föderation;55.755826;37.6173
20198002;MOSKAU-TOV.KIEVSK.;Russische Föderation;55.755826;37.6173
20198101;MOSKVA-PASS-KIEVSKAIA;Russische Föderation;55.755826;37.6173
20198200;MOSKVA-TOVA-SMOLENSKAIA;Russische Föderation;55.755826;37.6173
20198234;MOSKVA-BELORUSSKAIA;Russische Föderation;55.728586;37.600105
20199000;ROSTOKINO;Russische Föderation;55.837896;37.649825
20199208;CHERKIZOVO;Russische Föderation;55.966204;37.79596
20199307;LEFORTOVO;Russische Föderation;55.753262;37.704099
20199406;MOSKVA JUSHNI PORT;Russische Föderation;55.755826;37.6173
20199505;UGRESHSKAIA;Russische Föderation;;
20199703;BOINIA;Russische Föderation;;
20199802;MOSKVA NOVOPROLETARSKAJA;Russische Föderation;55.755826;37.6173
20200006;BRJANSK;Russische Föderation;53.263531;34.41611
20201202;ZLYNKA-EKS.;Russische Föderation;52.428436;31.733098
20202002;UNECHA;Russische Föderation;52.828763;32.60461
20202101;KLINTSY;Russische Föderation;52.756616;32.256669
20203703;WITEMLIA-EKS.;Russische Föderation;;
20203802;NAVLJA;Russische Föderation;52.829339;34.506422
20204206;SUZEMKA;Russische Föderation;52.389217;33.887386
20204404;SUZEMKA-EKS.;Russische Föderation;52.317533;34.073671
20205302;MIH.RUDNIK/SHELESNOJE;Russische Föderation;;
20205609;LUJKI-ORLOVSKIE;Russische Föderation;;
20207100;GLUCHKOWO-EKS.;Russische Föderation;;
20208108;RYCHKOVO;Russische Föderation;55.932989;36.898109
20208207;KURSK;Russische Föderation;51.709196;36.156224
20210104;TULA;Russische Föderation;54.204836;37.618492
20210302;TULA VIAZEMSKAIA;Russische Föderation;54.204836;37.618492
20213108;TUPIK;Russische Föderation;59.48623;35.617677
20213322;KIREEVSKAIA;Russische Föderation;;
20214007;KAZNATCEEWKA;Russische Föderation;;
20214106;SCEKINO;Russische Föderation;54.000972;37.520372
20215608;OTRADA;Russische Föderation;53.971505;55.120329
20216002;OREL;Russische Föderation;52.966847;36.06249
20217406;SWOBODA;Russische Föderation;53.859777;23.119986
20218602;LIVNY I;Russische Föderation;52.424625;37.599642
20218701;LIVNY II;Russische Föderation;52.401362;37.58132
20220004;RYBNOE;Russische Föderation;54.725091;39.510467
20220202;DJAGELEVO;Russische Föderation;;
20220228;PAVLOVSKIJ POST;Russische Föderation;;
20220301;RJAZAN;Russische Föderation;54.609542;39.712586
20220509;LESOK;Russische Föderation;54.58544;39.795667
20221507;KASIMOV;Russische Föderation;54.949757;41.397405
20222000;SASOVO;Russische Föderation;54.356424;41.919413
20222802;RIAZAN 2;Russische Föderation;55.030556;37.923963
20223107;STENKINO 2;Russische Föderation;54.546462;39.747298
20223800;RIAJSK;Russische Föderation;53.56527;40.063682
20225300;EFREMOV;Russische Föderation;53.149449;38.093733
20225706;SBORNAIA UGOLNAIA;Russische Föderation;53.991456;38.295462
20226308;NOVOMOSKOVSKAJA;Russische Föderation;55.817199;37.617457
20226704;WENEW;Russische Föderation;;
20230003;OREHOVO-ZUEVO;Russische Föderation;55.803435;38.96679
20230102;REUTOVO;Russische Föderation;52.057859;36.361674
20230201;STROIKA;Russische Föderation;;
20230300;BALASHIHA;Russische Föderation;55.79819;37.967987
20230409;ZHELEZNODOROZHNAJA;Russische Föderation;55.597934;38.146401
20230460;ELEKTROUGLI;Russische Föderation;55.715611;38.209321
20230508;KUPAVNA;Russische Föderation;55.745612;38.121438
20230607;ELEKTROUGLI;Russische Föderation;55.715611;38.209321
20230805;FRJAZEVO;Russische Föderation;;
20230904;ELEKTROSTAL;Russische Föderation;55.783553;38.455161
20231001;NOGINSK;Russische Föderation;55.876116;38.466659
20231100;PAVLOVSKIJ POSAD;Russische Föderation;55.775803;38.653292
20231506;POKROV;Russische Föderation;55.918089;39.178437
20231605;DULEVO;Russische Föderation;54.461181;36.945061
20231803;KUROVSKAIA;Russische Föderation;55.573219;38.923102
20232108;SHATURA;Russische Föderation;55.57596;39.530068
20232306;KRIVANDINO;Russische Föderation;55.561747;39.68268
20233403;EGORJEVSK;Russische Föderation;;
20233601;VOSKRESENSK;Russische Föderation;55.323842;38.681513
20233700;PESKI;Russische Föderation;59.823605;30.931217
20233809;GOLUTWIN;Russische Föderation;;
20234104;QUROWO;Russische Föderation;54.036273;16.577079
20234203;LUHOVICY;Russische Föderation;54.940244;39.027959
20234807;MYTISCHI;Russische Föderation;55.919847;37.765499
20234906;PODLIPKI-DATCNYE;Russische Föderation;55.024562;41.527754
20235101;ZELENY BOR;Russische Föderation;53.2775;158.185278
20235200;IVANTEEVKA;Russische Föderation;55.975927;37.91952
20235309;FRIAZINO;Russische Föderation;55.96026;38.044144
20235507;SCHOLKOWO;Russische Föderation;;
20235705;MONINO;Russische Föderation;55.842684;38.187122
20235903;PUSCHKINO;Russische Föderation;55.987833;37.841177
20236000;SOFRINO;Russische Föderation;56.136878;37.927304
20236208;HOTKOVO;Russische Föderation;56.255692;37.989136
20236307;SERGIEV POSAD/SOGA.;Russische Föderation;56.324232;38.145211
20236604;NAUGOLNYI;Russische Föderation;;
20236901;STRUNINO;Russische Föderation;56.369003;38.582967
20237008;ALEKSANDROV;Russische Föderation;56.394731;38.712037
20237305;BELKOVO;Russische Föderation;56.299023;41.209272
20237602;POTOCHINO;Russische Föderation;55.900268;38.983559
20237909;LOBNJA;Russische Föderation;56.017231;37.485264
20238303;IAHROMA;Russische Föderation;;
20238402;DMITROV;Russische Föderation;56.34277;37.528842
20238907;SOREWNOWANIE;Russische Föderation;;
20239004;BOLCHAIA VOLGA;Russische Föderation;56.309787;43.98558
20240002;MUROM;Russische Föderation;55.567398;42.016585
20241901;TUMSKAJA;Russische Föderation;55.598064;40.647629
20242107;KURLOVO;Russische Föderation;55.456342;40.613415
20242206;GUS KHRUSTALNYI;Russische Föderation;55.606284;40.656373
20243014;ZOLOTKOVSKII;Russische Föderation;;
20243105;ZOLOTKOVSKII;Russische Föderation;;
20243808;TESHA-MYTISHI;Russische Föderation;55.515431;42.818093
20244202;ARZAMAS 2;Russische Föderation;55.408705;43.848123
20244608;PEREVOZSKAIA;Russische Föderation;55.5786;44.5498
20245001;SERGACH;Russische Föderation;55.527033;45.477586
20245100;PILNIA;Russische Föderation;55.5472;45.933
20245308;SHUMERLIA;Russische Föderation;55.4973;46.4019
20245506;VURNARY;Russische Föderation;55.493243;46.964658
20245605;ARZAMAS 1;Russische Föderation;55.411846;43.850045
20246603;UJOVKA;Russische Föderation;;
20248104;KANASH;Russische Föderation;55.509769;47.494798
20248500;CHEBOKSARY;Russische Föderation;56.116766;47.262782
20248609;NOVOTCEBOKSARY;Russische Föderation;;
20248807;URMARY;Russische Föderation;55.655966;47.795312
20250001;IUDINO;Russische Föderation;56.136274;43.567742
20250209;LAGERNAJA;Russische Föderation;;
20250308;KAZAN;Russische Föderation;55.830431;49.066081
20250407;KAZAN-PEREWALKA;Russische Föderation;55.830431;49.066081
20250704;WAHITOWO;Russische Föderation;;
20250902;WOSSTANIE;Russische Föderation;;
20251207;ZELENNYI DOL;Russische Föderation;55.8502;48.6519
20251306;PARATSK;Russische Föderation;55.842329;48.501393
20251504;WOLJSK;Russische Föderation;;
20252403;JOCHKAR-OLA;Russische Föderation;56.640223;47.883858
20253609;SHEMORDAN;Russische Föderation;56.18966;50.398957
20254607;MOJGA;Russische Föderation;;
20255406;POZIM 1/IZHEVSK;Russische Föderation;56.823581;53.263124
20255505;POSIM;Russische Föderation;;
20255802;VOTKINSK;Russische Föderation;57.040944;53.97693
20256701;SAIGATKA;Russische Föderation;;
20257006;KAMA;Russische Föderation;55.360696;50.435962
20257600;NEFTEKAMSK;Russische Föderation;56.102608;54.286739
20257808;JANAUL;Russische Föderation;56.267483;54.925254
20258103;TCERNUCHKA;Russische Föderation;;
20258616;TCERNAJA RECHKA;Russische Föderation;53.857627;40.748085
20260000;NIZNIJ NOWGOROD;Russische Föderation;55.407092;43.785102
20260109;GORKI AVTOSAWOD;Russische Föderation;55.507059;37.753255
20260208;GORKII-MOSKOVSKII;Russische Föderation;;
20261206;KOSTARIKHA;Russische Föderation;56.308887;43.876267
20261305;POCHINKI;Russische Föderation;54.712461;44.837904
20261354;KOZINO;Russische Föderation;55.732962;36.933423
20261800;BALAHNA;Russische Föderation;56.501743;43.563372
20261909;PRAVDINSK;Russische Föderation;54.441314;21.011982
20262105;PETUCHKI;Russische Föderation;55.925124;39.448905
20262600;IUREVETS;Russische Föderation;;
20262709;VLADIMIR;Russische Föderation;56.131598;40.399985
20263103;KOVROV I;Russische Föderation;56.356769;41.322631
20263707;VIAZNIKI;Russische Föderation;56.235685;42.14726
20264507;SEIMA;Russische Föderation;;
20264705;DZERZHINSK;Russische Föderation;56.244099;43.43518
20264804;IGUMNOVO;Russische Föderation;58.839183;36.498846
20265801;SEMENOW;Russische Föderation;56.788948;44.501832
20267104;TONCHAEWO;Russische Föderation;;
20267807;KOTELNITC 1;Russische Föderation;58.311881;48.343298
20268805;SECHUGA;Russische Föderation;55.71034;43.842201
20268904;SUROVATIHA;Russische Föderation;55.7157;43.8113
20269100;METALLIST;Russische Föderation;56.364454;39.239286
20269506;KSTOVO;Russische Föderation;56.132885;44.17401
20269605;ZELECINO;Russische Föderation;;
20270207;KIROW;Russische Föderation;58.565616;49.881949
20270306;KIROW KOTLASSKII;Russische Föderation;58.603532;49.666798
20271007;SLOBODSKOE;Russische Föderation;58.728649;50.173165
20273102;LUZA;Russische Föderation;60.63282;47.251621
20273300;WIATKA;Russische Föderation;57.821576;49.403295
20273607;TCEPETCKAJA;Russische Föderation;;
20275701;GLAZOV;Russische Föderation;58.136884;52.654834
20275800;BALEZINO;Russische Föderation;57.96737;53.045851
20280107;KOTLAS-IUJNYI;Russische Föderation;61.246849;46.661801
20280503;KOTLAS-SEVERNYI;Russische Föderation;61.246849;46.661801
20280909;NIZOVKA;Russische Föderation;53.331487;44.068307
20283903;SYKTYVKAR;Russische Föderation;61.647851;50.833903
20284000;CHOVIU;Russische Föderation;;
20284109;KOITY;Russische Föderation;;
20285601;UHTA;Russische Föderation;63.567321;53.747159
20285700;VETLASIAN;Russische Föderation;;
20285809;SOSNOGORSK;Russische Föderation;63.593219;53.906853
20287607;CHIKSHINO;Russische Föderation;64.898141;56.43307
20288001;PECHORA;Russische Föderation;65.138349;57.190391
20288308;USINSK;Russische Föderation;65.999169;57.524329
20288704;INTA 2;Russische Föderation;66.03951;60.130741
20289405;MULDA;Russische Föderation;67.465553;63.68
20289504;VORKUTA;Russische Föderation;67.496897;64.060218
20289900;LABYTNANGT;Russische Föderation;66.655763;66.389832
20290007;ISAKOGORKA;Russische Föderation;64.449279;40.634415
20290205;SEVERODVINSK;Russische Föderation;64.566176;39.850598
20290403;ARHANGELSK;Russische Föderation;64.547251;40.560155
20290502;ARKHANGELSK GOROD;Russische Föderation;64.547251;40.560155
20294603;PLESECKAIA;Russische Föderation;;
20300103;VOLOGDA;Russische Föderation;59.218066;39.897805
20300202;VOLOGDA-PRISTAN;Russische Föderation;59.314;40.641
20300301;VOLOGDA 2;Russische Föderation;60.755661;46.286901
20302307;TCHEREPOVETS 1;Russische Föderation;59.140555;37.92606
20303602;VOHTOGA;Russische Föderation;;
20304600;BUI;Russische Föderation;58.480781;41.526098
20305003;KOSTROMA;Russische Föderation;57.777482;40.969893
20305102;KOSTROMA NOVAIA;Russische Föderation;57.759149;40.897033
20307108;MANTUROVO;Russische Föderation;58.322759;44.756427
20307504;CHARIIA;Russische Föderation;;
20310003;JAROSLAW;Russische Föderation;57.626074;39.884471
20310607;PRIVOLJE;Russische Föderation;;
20311803;WOLGA;Russische Föderation;54.904082;48.905946
20312306;RYBINSK TOV.;Russische Föderation;58.057486;38.811697
20313106;MOLOT;Russische Föderation;55.29772;82.293087
20313304;BALAKIREVO;Russische Föderation;56.50372;38.837571
20313502;PEREZLAVL;Russische Föderation;56.747048;38.89026
20314302;ROSTOW-IAROSLAWSKI;Russische Föderation;47.235714;39.701505
20316208;VOLGORECHENSK;Russische Föderation;57.445687;41.157061
20316307;ERMOLINO;Russische Föderation;55.195987;36.596002
20316703;KINESHMA;Russische Föderation;57.442625;42.115951
20317107;KOLCHUGINO;Russische Föderation;56.298385;39.370142
20318402;TEKSTILNYI;Russische Föderation;;
20318600;IVANOVO SORT.;Russische Föderation;57.005067;40.976645
20319004;SCHUJA;Russische Föderation;56.851134;41.357534
20405209;USATOVO;Russische Föderation;50.785629;46.902928
20433706;SHEBEKINO;Russische Föderation;50.411866;36.894762
20434209;SHEBEKINO;Russische Föderation;50.411866;36.894762
20434506;BELGOROD;Russische Föderation;50.599713;36.598262
20438002;GUBKIN/STOJLENSKAJA;Russische Föderation;51.282417;37.543495
20438309;WALUKI;Russische Föderation;58.42861;50.818523
20438408;STOILENSKAIA I;Russische Föderation;;
20438507;KOTEL/STARY OSKOL;Russische Föderation;51.233835;37.922923
20438606;KOTEL;Russische Föderation;51.233835;37.922923
20439604;KRASNY HUTOR-EKS.;Russische Föderation;54.570309;31.442159
20439703;SOLOWE-EKS.;Russische Föderation;;
20488908;ZVERENSKAJA;Russische Föderation;;
20492108;SLAVIANSK-VETKA;Russische Föderation;;
20495002;SEVERSK;Russische Föderation;56.619269;84.881683
20495408;STACHANOV;Russische Föderation;48.560407;38.648718
20495507;PERVOMAISK;Russische Föderation;54.871891;43.801448
20496505;ARTEMOVSK I;Russische Föderation;48.598667;37.998037
20510107;ROSTOV TOVARNYI;Russische Föderation;47.235714;39.701505
20510206;ROSTOV-GLAVNYI;Russische Föderation;47.242157;39.706403
20510701;ZARECHNAIA;Russische Föderation;54.666364;54.988626
20510800;AZOV;Russische Föderation;47.094745;39.413655
20511006;USPENSKAIA-EKS.;Russische Föderation;;
20511501;TAGANROG;Russische Föderation;47.241633;38.867601
20511600;TAGANROG;Russische Föderation;47.241633;38.867601
20511907;ZAKORDONNY-EKS.;Russische Föderation;;
20512004;ZVEREVO;Russische Föderation;48.021924;40.120757
20512103;SULIN;Russische Föderation;48.909033;40.119113
20512509;SADKI;Russische Föderation;48.603147;39.917124
20512806;SHAHTNAIA;Russische Föderation;;
20513309;LOKOMOTIVSTROI;Russische Föderation;;
20513408;HOTUNOK;Russische Föderation;;
20513507;NOVOCHERKASSK;Russische Föderation;47.416835;40.075639
20513606;KIZITERINKA;Russische Föderation;47.242927;39.785266
20515403;EISK;Russische Föderation;46.682578;38.270294
20516203;TIMACHEVSKAJA;Russische Föderation;;
20518407;SALSK;Russische Föderation;46.476916;41.528801
20519702;VOLGODONSK;Russische Föderation;47.506047;42.179434
20519900;TSIMLIANSKAIA;Russische Föderation;;
20520007;KAVKASKAIA;Russische Föderation;;
20520106;TIKHORETSKAIA;Russische Föderation;;
20520502;WEDMIDIWKA;Russische Föderation;;
20520601;MYCHASTOVKA;Russische Föderation;;
20520908;NOVOROSSIJSK;Russische Föderation;44.715401;37.761967
20521005;NOVOROSSIISK EXP.;Russische Föderation;44.912856;37.328399
20521609;KRYMSKAIA;Russische Föderation;45.125441;37.338904
20522102;PROTOKA;Russische Föderation;55.156909;34.30804
20522805;ANAPA;Russische Föderation;44.885701;37.319919
20523001;TEMRIUK;Russische Föderation;45.269913;37.388391
20523100;STAROTITAROWKA;Russische Föderation;;
20523506;ABINSKAIA;Russische Föderation;;
20523803;ILSKAJA;Russische Föderation;44.844621;38.671781
20524207;GORIACHII KLIUCH;Russische Föderation;44.635384;39.135119
20524439;KRASNODAR;Russische Föderation;44.940534;38.774911
20525402;KRASNODAR;Russische Föderation;45.039267;38.987221
20525808;UST-LABINSKAIA;Russische Föderation;;
20526707;IZOBILNAIA;Russische Föderation;;
20526806;RYZDVJANAJA;Russische Föderation;;
20526905;PALAGIADA;Russische Föderation;45.132617;41.972847
20527002;STAVROPOL;Russische Föderation;45.045476;41.968343
20527101;STAROMARIEVSKAIA;Russische Föderation;;
20528703;ELISTA;Russische Föderation;46.315488;44.279401
20530006;MINERAL.VODY;Russische Föderation;44.211675;43.123853
20530204;ARMAVIR ROSTOVSKII;Russische Föderation;44.98736;41.111133
20530600;BOGUSHEWSKAIA;Russische Föderation;;
20531004;CHERKESSK;Russische Föderation;44.227397;42.059171
20531202;DJEGUTA;Russische Föderation;44.090141;41.977194
20531301;NEVINNOMYSSKAJA;Russische Föderation;;
20532002;LERMOMTOWSKII;Russische Föderation;;
20532101;PJATIGORSK;Russische Föderation;44.049893;43.039636
20532200;SKATCHKI;Russische Föderation;;
20532309;ESSENTUKI;Russische Föderation;44.045512;42.857523
20532507;KISLOVODSK;Russische Föderation;43.905601;42.728095
20532804;ADLER;Russische Föderation;43.444262;39.943473
20532903;SOCHI;Russische Föderation;43.602808;39.734154
20533000;LOO;Russische Föderation;43.697313;39.592945
20533208;LAZAREVSKAIA;Russische Föderation;;
20533308;LAZAREVSKAIA;Russische Föderation;;
20533406;TUAPSE;Russische Föderation;44.193109;38.932473
20533505;TUAPSE-SORTIROV.-SLIV;Russische Föderation;44.106518;39.080645
20534305;KOMSOMOLSKAIA;Russische Föderation;55.776406;37.656136
20534339;KOMSOMOLSKAIA;Russische Föderation;55.776406;37.656136
20534503;APSHERONSKAIA;Russische Föderation;;
20534602;BELORECHENSKAIA;Russische Föderation;;
20534800;MAJKOP;Russische Föderation;44.598412;40.108087
20535708;LABINSKAIA;Russische Föderation;;
20535807;MOSTOVSKAJA;Russische Föderation;45.991741;38.968936
20536300;GEORGIEVSK;Russische Föderation;44.149767;43.457769
20536508;MICHAILOWSKAIA;Russische Föderation;;
20537001;BUDENNOVSK;Russische Föderation;44.79252;44.153616
20537100;NOWAIA JIZN;Russische Föderation;44.896328;44.087672
20537605;PROCHLADNAIA;Russische Föderation;;
20537902;NALJCHIK;Russische Föderation;43.494992;43.604513
20538108;ELHOTOVO;Russische Föderation;43.342811;44.203727
20538207;DARG-KOH;Russische Föderation;;
20538306;ARDON;Russische Föderation;43.178799;44.29609
20538405;ALAGIR;Russische Föderation;43.038989;44.220374
20538504;BESLAN;Russische Föderation;43.191686;44.552939
20538702;VLADIKAVKAZ/ORDJ.;Russische Föderation;43.025234;44.665976
20539304;MOZDOK;Russische Föderation;43.753769;44.649043
20540302;NAZRAN;Russische Föderation;43.21488;44.77635
20540609;SLEPCOVSKAIA;Russische Föderation;;
20540906;ALDY;Russische Föderation;43.268611;45.651111
20541805;ULAN-HOLL;Russische Föderation;50.474901;118.929008
20542209;KIZLJAR;Russische Föderation;43.84511;46.701644
20542803;KISILJURT;Russische Föderation;;
20543108;BUINAKSK;Russische Föderation;42.822275;47.116596
20543207;MAHACHKALA;Russische Föderation;42.966631;47.512629
20543306;MAKHATCHKALA-2-PORT;Russische Föderation;42.82083;47.655401
20543405;MAKHATCHKALA SORT;Russische Föderation;42.966631;47.512629
20544502;DERBENT;Russische Föderation;42.067425;48.289091
20544809;SAMUR;Russische Föderation;41.826985;48.484942
20544908;SAMUR-EKS.;Russische Föderation;41.826985;48.484942
20578120;HAZEBROUCK ATELIER;Russische Föderation;;
20580001;LIHAIA;Russische Föderation;47.995;40.0529
20580100;PLECHAKOWO-EKS.;Russische Föderation;;
20581405;ALEKSEEVKA;Russische Föderation;50.625654;38.697811
20582007;LISKI;Russische Föderation;51.107039;39.324965
20582908;TALOVAIA;Russische Föderation;;
20583104;BUTURLINOVKA;Russische Föderation;50.833008;40.602387
20583500;KALATC;Russische Föderation;;
20584201;KALMYK;Russische Föderation;51.114806;41.86482
20584409;POVORINO;Russische Föderation;51.190154;42.253629
20584805;EVDAKOVO;Russische Föderation;50.823584;39.500355
20585000;PODGORNOE;Russische Föderation;49.252385;83.797637
20585109;ROSSOCH;Russische Föderation;50.194341;39.578411
20585802;MITROFANOVKA;Russische Föderation;51.005117;40.365883
20586008;KANTEMIROVKA;Russische Föderation;49.700103;39.863477
20586206;CHERTKOVO;Russische Föderation;49.388706;40.146751
20586503;MILLEROVO;Russische Föderation;48.911434;40.398264
20587006;GLUBOKAIA;Russische Föderation;56.44781;68.187304
20587204;KAMENSKAIA;Russische Föderation;55.424627;39.269605
20587709;BELAIA KALITVA;Russische Föderation;48.181777;40.785444
20589507;GUKOWO-EKS.;Russische Föderation;48.051312;39.937705
20590604;BOR;Russische Föderation;56.35883;44.07668
20591909;GRIAZI VORONEJSK;Russische Föderation;52.2876;39.6279
20592204;NOVOLIPECK;Russische Föderation;;
20592501;LIPEZK;Russische Föderation;52.6122;39.598123
20593012;ELETS-TOWARNY;Russische Föderation;52.617099;38.504867
20593103;ELETS-TOWARNY;Russische Föderation;52.617099;38.504867
20593301;TELEGINO;Russische Föderation;52.692089;38.361361
20594200;DANKOV;Russische Föderation;53.247386;39.140108
20594309;LEV TOLSTOI;Russische Föderation;53.209845;39.448058
20596502;VORONEZH;Russische Föderation;51.675497;39.208882
20596524;VORONEJ;Russische Föderation;51.675497;39.208882
20596528;VORONEJ;Russische Föderation;51.671849;39.140191
20597104;PRIDATCHA;Russische Föderation;51.520283;39.762388
20597401;NOVOVORONEJSKAIA;Russische Föderation;;
20599001;BORISOGLEBSK;Russische Föderation;51.368094;42.082563
20600148;MICHURINSK;Russische Föderation;52.886067;40.493198
20600304;IZBERDE;Russische Föderation;;
20600908;MITCHURINSK URALSKII;Russische Föderation;;
20601401;TAMBOV;Russische Föderation;52.725999;41.447903
20601484;TAMBOV;Russische Föderation;52.723598;41.442306
20602201;TSNA;Russische Föderation;52.722727;41.474108
20602805;KIRSANOV;Russische Föderation;52.658135;42.725372
20603407;RANENBURG;Russische Föderation;53.252105;39.957956
20603803;BOGOIAVLENSK;Russische Föderation;53.237;40.2712
20605303;BALACHOV 1;Russische Föderation;51.559805;43.147633
20605402;BALASHOV-PASSAJIRSKII;Russische Föderation;51.539591;43.171248
20606400;BALACHOW 2;Russische Föderation;;
20606426;BALACHOW 2;Russische Föderation;;
20607101;UMET;Russische Föderation;53.337835;42.869121
20607200;TAMALA;Russische Föderation;52.527733;43.310996
20607408;VERTUNOVSKAIA;Russische Föderation;52.3897;43.5447
20607606;RTISCEVO 1;Russische Föderation;52.2451;43.744
20608802;ATKARSK;Russische Föderation;51.874515;44.9896
20610006;VOLGOGRAD;Russische Föderation;48.708048;44.513303
20610204;KRASNOOKTIABRSKAIA;Russische Föderation;;
20610402;VOLZHSKIJ;Russische Föderation;48.817649;44.770729
20611608;BEKETOVSKAYA;Russische Föderation;55.603836;39.380974
20611707;SAREPTA;Russische Föderation;48.519444;44.510833
20612101;TATIANKA-IUJNAIA;Russische Föderation;;
20613307;FILONOWO;Russische Föderation;;
20613604;SERBIAKOVO;Russische Föderation;;
20613802;ARTCEDA;Russische Föderation;;
20615005;SUROVIKINO;Russische Föderation;48.608569;42.845541
20615500;DONSKAJA;Russische Föderation;43.61675;39.724822
20616706;KUTUM;Russische Föderation;46.342183;48.084812
20616904;ASTRAHANJ;Russische Föderation;;
20617001;AKSARAISKAIA 2;Russische Föderation;;
20617506;AKSARAJSKAJA;Russische Föderation;;
20618405;AKSARAISKAIA 2-EKS.;Russische Föderation;;
20618801;DJANYBEK;Russische Föderation;;
20620005;SARATOV-PASSAJIRSKII;Russische Föderation;51.54699;46.000959
20620104;TROFIMOVSKIJ;Russische Föderation;;
20620203;TROFIMOVSKII 2;Russische Föderation;;
20622407;LAPCHINSKAIA;Russische Föderation;;
20623009;KAMYCHIN;Russische Föderation;;
20624007;SENNAIA;Russische Föderation;52.1583;46.9682
20624403;KULATKA;Russische Föderation;52.597873;47.810135
20624908;WOLSK 1;Russische Föderation;52.049708;47.369227
20625004;KLENY;Russische Föderation;52.066678;47.483895
20625103;BALAKOVO;Russische Föderation;52.024559;47.780663
20625400;KNIAZEVKA;Russische Föderation;;
20625608;ENGELS/POKROVSK;Russische Föderation;51.47533;46.113677
20625905;POKROVSK-PRIV-PRISTAN;Russische Föderation;61.47653;129.125376
20626309;URBAH;Russische Föderation;51.2626;47.03
20627208;ERSHOV;Russische Föderation;51.355698;48.27229
20627505;RUKOPOL;Russische Föderation;51.816585;48.728199
20627604;SAVELEVKA;Russische Föderation;48.291263;38.340695
20627703;PUGACHEVSK;Russische Föderation;52.015542;48.793064
20628206;ALTATA;Russische Föderation;51.208546;48.747691
20628404;OZINKI;Russische Föderation;51.19785;49.733508
20628503;OZINKI-EKS.(R);Russische Föderation;51.19785;49.733508
20630004;PENZA;Russische Föderation;53.22729;45
20630202;PENZA 2;Russische Föderation;53.24731;45.124666
20632000;MORCHANSK;Russische Föderation;;
20632305;BELOE OZERO;Russische Föderation;62.094575;129.732967
20634808;KUZNECK;Russische Föderation;53.118366;46.584552
20635508;SYZRAN 2;Russische Föderation;53.186461;48.385585
20635607;SYZRAN;Russische Föderation;53.150575;48.479598
20635904;RJABINA;Russische Föderation;;
20636100;KACHPIR;Russische Föderation;;
20637108;HIMITCESKAIA;Russische Föderation;;
20637207;HIMZAVODSKAIA;Russische Föderation;;
20637306;TOLJATTI;Russische Föderation;53.5086;49.419834
20638007;SREDNEWOLJSKAIA;Russische Föderation;;
20639203;TCAPAEVSK;Russische Föderation;52.969666;49.706732
20639401;NOVOKUJBYCHEV;Russische Föderation;53.096067;49.891289
20641605;SARANSK;Russische Föderation;54.200048;45.174512
20642504;BARYCH;Russische Föderation;55.757771;55.816742
20644807;ULJANOVSK-CENTRALNYI;Russische Föderation;54.130726;47.768643
20645101;ULIIANOVSK 3;Russische Föderation;54.301595;48.312212
20646208;DIMITROVGARD;Russische Föderation;54.226979;49.568457
20646901;NURLAT;Russische Föderation;54.419219;50.818898
20647602;PISMIANKA;Russische Föderation;53.389676;38.096113
20647800;KULSHARIPOVO;Russische Föderation;54.897744;52.23741
20647909;ALMETEVSKAIA;Russische Föderation;;
20648204;BIKLAN;Russische Föderation;;
20648402;KRUGLOE POLE;Russische Föderation;55.62724;52.18119
20648501;NABERJN.TCELNSY;Russische Föderation;;
20648600;BUGULMA;Russische Föderation;54.522031;52.826081
20648709;NIJNEKAMSK;Russische Föderation;55.613196;51.846997
20648907;TIHONOVO;Russische Föderation;;
20651000;TUIMAZI;Russische Föderation;54.598534;53.692184
20651802;URCHAK (RZD);Russische Föderation;;
20652305;BELOE OZERO;Russische Föderation;62.094575;129.732967
20652602;KOSJAKOWKA;Russische Föderation;;
20652701;STERLITAMAK;Russische Föderation;53.655435;55.943893
20652909;ICHIMBAEVO;Russische Föderation;;
20653006;SALAVAT;Russische Föderation;53.386044;55.925947
20653204;MELEUZ;Russische Föderation;52.962248;55.935865
20653402;KUMERTAU;Russische Föderation;52.763739;55.811568
20654301;BELORECK;Russische Föderation;53.967399;58.406064
20654509;UFA;Russische Föderation;54.608456;54.045013
20654707;CHERNIHOVKA/UFA;Russische Föderation;54.738762;55.972055
20654905;BENZIN;Russische Föderation;54.833938;56.089782
20655100;LOQUINNAIA;Russische Föderation;;
20655159;LOQUINNAIA;Russische Föderation;;
20656405;PRIIUTOVO;Russische Föderation;;
20656504;AKSAKOWO;Russische Föderation;54.021807;54.152569
20656603;BELEBEI;Russische Föderation;54.110346;54.104627
20657809;BEZYMIANKA;Russische Föderation;;
20657908;SAMARA;Russische Föderation;53.184202;50.197773
20658807;SERNYE VODY 1;Russische Föderation;;
20658906;SERNYE VODY 2;Russische Föderation;;
20658914;SERNYE VODY 2;Russische Föderation;;
20659003;NOVOOTRADNAJ;Russische Föderation;;
20659409;BUGURUSLAN;Russische Föderation;53.623406;52.433222
20659706;FILIPPOVKA;Russische Föderation;43.23839;131.537997
20659904;ABDULINO;Russische Föderation;53.681954;53.64748
20683102;TOBOL;Russische Föderation;57.563929;66.906953
20741108;PERM 2;Russische Föderation;58.012705;56.2617
20760009;PERM;Russische Föderation;58.029681;56.266792
20760108;KURYA;Russische Föderation;51.605047;82.297628
20760306;KRASNOKAMSK;Russische Föderation;58.078955;55.767187
20760405;BLOTCHNAIA;Russische Föderation;;
20760504;KABELNAIA;Russische Föderation;;
20761601;OSENCY;Russische Föderation;;
20762542;TCAKOWSKAIA;Russische Föderation;;
20763706;KUNGUR;Russische Föderation;57.411505;56.991695
20764542;TCAKOWSKAIA;Russische Föderation;;
20764803;JARINO;Russische Föderation;;
20767301;CHUSOVSKAYA;Russische Föderation;58.044725;56.615197
20767905;GUBACHA;Russische Föderation;;
20768903;IAWA;Russische Föderation;43.137029;45.777685
20769000;BEREZNIKI;Russische Föderation;59.413183;56.784932
20769307;BERESNIKI;Russische Föderation;59.413183;56.784932
20769505;SOLIKAMSK II;Russische Föderation;59.641467;56.750817
20769604;SOLIKAMSK;Russische Föderation;59.672033;56.755767
20769703;ZAPOLJE URALSKOJE;Russische Föderation;;
20770008;SMYCHKA;Russische Föderation;52.80063;41.552935
20770107;NIJNIJ TAGIL;Russische Föderation;57.921491;59.981619
20770305;WAGONOZAWOD;Russische Föderation;;
20770800;NEWIANSK;Russische Föderation;;
20771105;NEIVO-RUDIANSKAIA;Russische Föderation;;
20771204;VERHNEIVINSK;Russische Föderation;;
20771808;VERHNIAIA SALDA;Russische Föderation;58.041109;60.559247
20773002;KACHKANAR;Russische Föderation;58.697859;59.492904
20773101;KUSHVA;Russische Föderation;58.285735;59.777631
20773200;BLAGODAT;Russische Föderation;56.014444;52.700833
20773408;GRES;Russische Föderation;54.084816;38.231596
20773507;MIR;Russische Föderation;53.738396;87.011869
20773606;NIJNIAIA TURU;Russische Föderation;;
20774406;SEROV;Russische Föderation;59.610465;60.617743
20774703;SEROV SORTIROVOTCHNYI;Russische Föderation;59.610465;60.617743
20775403;KLIMKI;Russische Föderation;53.316958;21.482121
20775809;POKROWSK-URALSKI;Russische Föderation;;
20777102;IVEDEL;Russische Föderation;;
20778209;ALIABEVO;Russische Föderation;;
20778407;GEOLOGITSHESKAJA;Russische Föderation;;
20778506;VERHNEKANDINSKAJA;Russische Föderation;;
20778902;KONDA;Russische Föderation;61.602726;40.005105
20779108;VONEGAN;Russische Föderation;61.84349;76.610862
20779207;NJAGAN;Russische Föderation;62.129277;65.374514
20779405;PRIOBJE;Russische Föderation;62.546583;65.628237
20780007;EKETERINENBURG;Russische Föderation;56.838926;60.605703
20780304;SVERDLOVSK TOVARNYI;Russische Föderation;59.007735;61.931623
20780502;SVERDLOVSK PASSAJIRSKII;Russische Föderation;57.937468;61.268212
20780700;UKTUS SVETLOSKAIA;Russische Föderation;;
20780809;APPARATNAJA;Russische Föderation;;
20781005;KERAMIK;Russische Föderation;45.352681;41.025411
20781401;REVDA;Russische Föderation;56.81885;59.90364
20781708;PERVUURALSK;Russische Föderation;56.899916;59.952113
20784207;LYSVA;Russische Föderation;58.107205;57.788851
20784504;KUNARA;Russische Föderation;57.398523;60.465121
20785006;BEREZIT;Russische Föderation;56.951646;60.724006
20785709;RESH;Russische Föderation;;
20786509;ALAPAEVSK;Russische Föderation;57.848349;61.68803
20786806;BABUCHKINO;Russische Föderation;;
20787804;IRBIT;Russische Föderation;57.668013;63.063205
20788505;TAVDA;Russische Föderation;58.044289;65.256109
20788802;MORTKA;Russische Föderation;59.332724;66.011516
20788901;USTJE-AHA;Russische Föderation;59.631344;39.72516
20790006;TJUMEN;Russische Föderation;57.161298;65.525017
20790402;VOINOVKA;Russische Föderation;47.962848;37.595256
20790907;ZAVODOUKOVSKAIA;Russische Föderation;;
20791004;NOVAIA ZAIMKA;Russische Föderation;56.481397;66.928094
20791202;OMUTINSKAIA;Russische Föderation;;
20791608;ICHIM;Russische Föderation;56.114631;69.477125
20792101;UTIACHEWO;Russische Föderation;;
20792903;KAMYCHLOW;Russische Föderation;;
20793208;BOGDANOWITC;Russische Föderation;;
20793505;BAJENOVO;Russische Föderation;;
20793604;MURANITNYI;Russische Föderation;;
20793703;IZUMRUD;Russische Föderation;55.157276;37.291004
20793711;IZUMRUD;Russische Föderation;55.157276;37.291004
20793802;ASBEST;Russische Föderation;57.002146;61.458218
20794206;LECHEBNYI;Russische Föderation;;
20794305;KOLCOVO;Russische Föderation;55.767634;72.30852
20794404;ARAMILJ;Russische Föderation;56.5771;61.5047
20794503;HRIZOLITOVYI;Russische Föderation;56.5638;61.5456
20794602;KOLIUTKINO;Russische Föderation;;
20794701;MARAMZINO;Russische Föderation;56.593738;61.312809
20794800;HRAMCOVSKAIA;Russische Föderation;56.5019;61.7362
20794909;PEREBOR;Russische Föderation;55.970143;39.970231
20795005;KUNAVINO;Russische Föderation;56.991389;29.911944
20795104;KAMENSK-URALIJSK;Russische Föderation;54.214998;84.253184
20795401;UAZ;Russische Föderation;56.354565;61.933299
20796102;TOBOLSK;Russische Föderation;58.200024;68.263523
20797001;PYT-JAH;Russische Föderation;;
20797209;OSTROVNOJ;Russische Föderation;45.812411;135.284897
20797308;SURGUT;Russische Föderation;61.25595;73.384547
20797407;TCERNYJ;Russische Föderation;53.30215;23.28784
20797506;SURGUT-PORT;Russische Föderation;61.25595;73.384547
20797605;LANGEPASS;Russische Föderation;51.36094;48.270463
20797803;MEGION;Russische Föderation;61.037431;76.099798
20797902;NEZHNEVARTOVSK II;Russische Föderation;61.335388;73.465796
20798009;NIJNEWARTOVSK;Russische Föderation;60.943119;76.543372
20798207;KOGALYM;Russische Föderation;62.26655;74.544685
20798306;NOJABRSK;Russische Föderation;63.184196;75.447761
20798405;NOJABRSK II;Russische Föderation;63.191208;75.484697
20798702;PURPE;Russische Föderation;64.489697;76.701377
20798801;PANGODY;Russische Föderation;65.855619;74.496459
20798900;PUROVSK;Russische Föderation;64.942044;77.600492
20799007;SYVDARMA;Russische Föderation;65.262834;77.743431
20799106;KOROTCAEVO / SYVDARMA;Russische Föderation;;
20799304;FARAFONTEVSKAIA / SYVDARMA;Russische Föderation;;
20799403;NOV.URENGOJ;Russische Föderation;55.442529;36.659502
20799502;EVAJAHA;Russische Föderation;;
20800003;CHELJABINSK;Russische Föderation;55.164442;61.436843
20800045;CHELIABINSK;Russische Föderation;55.191421;61.452172
20800102;TCHELIABINSK GRUZOVOI;Russische Föderation;55.164442;61.436843
20800607;TCELIABINSK-IUJNY;Russische Föderation;;
20801407;ELEKTROSTANCIIA;Russische Föderation;;
20801506;NIJNIAIA;Russische Föderation;58.627704;59.85589
20801704;TAHTALYM;Russische Föderation;;
20801803;MUSLIUMOVO;Russische Föderation;55.593907;61.617186
20802504;KYCHTYM;Russische Föderation;55.717471;60.552127
20802900;RAZEZD N105;Russische Föderation;;
20803205;ESSAULSKAIA;Russische Föderation;;
20803908;TROICK;Russische Föderation;54.074757;61.567051
20804609;EMANJELINSK;Russische Föderation;54.756913;61.321149
20805200;TCEBARKUL;Russische Föderation;54.98107;60.385617
20805309;MIASS 1;Russische Föderation;55.024;60.1334
20805705;UCHALI;Russische Föderation;54.308958;59.408949
20806208;ZLATOUST;Russische Föderation;55.155879;59.685885
20806307;ZLATOUST;Russische Föderation;55.155879;59.685885
20806505;AJ;Russische Föderation;55.661593;58.135793
20808501;UST-KATAV;Russische Föderation;54.93117;58.164571
20810002;ORSK;Russische Föderation;51.184512;58.582279
20810200;ILECK GRENZE;Russische Föderation;;
20810804;BUSULUK;Russische Föderation;52.773283;52.261325
20811901;ORENBURG;Russische Föderation;51.768124;55.133127
20812008;MENOWYJ DVOR;Russische Föderation;;
20812206;DONGUZSKAIA;Russische Föderation;51.4657;55.1023
20812305;MAIACHNAIA;Russische Föderation;;
20812321;KANISSAI;Russische Föderation;;
20812909;SARAKTASH;Russische Föderation;51.786287;56.355368
20813600;MEDNOGORSK;Russische Föderation;51.39687;57.608466
20814103;GA;Russische Föderation;45.066647;38.939383
20814202;NOVOTROICK;Russische Föderation;51.209614;58.314662
20814301;NIKEL;Russische Föderation;69.409166;30.217118
20814608;KIMPERSAI;Russische Föderation;;
20815100;RUDNYI KLAD;Russische Föderation;;
20815803;AIDYRLIA;Russische Föderation;;
20816009;BREDY;Russische Föderation;52.412784;60.345282
20816207;KARTALY 1;Russische Föderation;53.044313;60.662517
20816405;TOBOL-EKS.(R);Russische Föderation;57.563929;66.906953
20817601;MAGNITOGORSK;Russische Föderation;53.412943;59.001623
20818302;SIBAJ;Russische Föderation;52.713359;58.668136
20820001;PETROPAVLOVSK (KASACHSTAN);Russische Föderation;54.873221;69.150548
20820100;PETROPAWLOWSK-EKS.(R);Russische Föderation;;
20826206;MAMLIUTKA;Russische Föderation;55.511763;46.416252
20827808;SHADRINSK;Russische Föderation;56.088256;63.634265
20828509;KURGAN;Russische Föderation;55.464911;65.305351
20828608;KURGAN GRUZOVOI;Russische Föderation;55.464911;65.305351
20830307;KARBYSHEVO I;Russische Föderation;56.489086;84.45195
20830703;OMSK-PASSAJIRSKII;Russische Föderation;54.96329;73.340918
20831107;OMSK;Russische Föderation;54.98848;73.324236
20831206;OMSK VOSTOTCHNYI;Russische Föderation;54.98848;73.324236
20831503;KOMBINATSKAIA;Russische Föderation;;
20832006;ISILKUL;Russische Föderation;54.883505;71.279923
20833004;TATARSKAJA;Russische Föderation;56.316213;93.218731
20833608;BARABINSK;Russische Föderation;55.35703;78.307593
20835603;KARASUK I;Russische Föderation;53.734294;78.00241
20837104;SLAVGOROD;Russische Föderation;52.993004;78.638656
20840108;BARNAUL;Russische Föderation;53.354779;83.769783
20841403;ZAPINSKAJA;Russische Föderation;;
20842807;VERSHININO;Russische Föderation;62.076767;38.199834
20843102;CHEMROVKA;Russische Föderation;52.556398;85.115159
20843110;CHEMROVKA;Russische Föderation;52.556398;85.115159
20843201;BIJSK;Russische Föderation;52.507275;85.1472
20843300;LOKOT-EKS;Russische Föderation;52.568769;34.567819
20843409;RUBCOVSK;Russische Föderation;51.51404;81.231768
20843904;POSPELINA;Russische Föderation;;
20844308;ALEISKAIA;Russische Föderation;;
20844704;KULUNDA;Russische Föderation;52.559973;78.92967
20845107;MIHAILOVKA-ALTAISKAIA;Russische Föderation;;
20845404;NOVOBLAGOVESHENKA;Russische Föderation;;
20846006;REBRICHA;Russische Föderation;53.354779;83.769783
20850008;INSKAIA;Russische Föderation;;
20850206;KLESTCHIKHA;Russische Föderation;;
20850602;NOVOSIBIRSK-GLAVNYI;Russische Föderation;55.008353;82.935733
20850909;NOVOSIBIRSK TOV.;Russische Föderation;55.008353;82.935733
20851501;NOVOSIBIRSK VOSTOTCHNYI;Russische Föderation;55.008353;82.935733
20851709;PACHINO;Russische Föderation;;
20852902;LOZHOK;Russische Föderation;54.841655;83.201381
20852905;LOZHOK;Russische Föderation;54.841655;83.201381
20853002;ISKITIM;Russische Föderation;54.616799;83.305568
20853309;SEIATEL;Russische Föderation;;
20860106;NOVOKUZNEZK;Russische Föderation;53.759594;87.12157
20860205;NOVOKUZNETSK VOSTOTCHNYI;Russische Föderation;53.759594;87.12157
20861104;BORNOTOVO;Russische Föderation;;
20861203;PROMYSHLENNAIA;Russische Föderation;54.914389;85.646652
20862300;BELOVO;Russische Föderation;54.410297;86.293695
20862409;RAZREZ;Russische Föderation;59.697988;59.954456
20863001;ERUNAKOVO;Russische Föderation;54.082803;87.455421
20863308;KUREGESH;Russische Föderation;;
20863803;TCHERKASOV KAMEN;Russische Föderation;53.977314;86.747418
20863902;PROKOPJEVSK;Russische Föderation;53.888753;86.759183
20864108;OBNORSKAIA;Russische Föderation;;
20864603;TOMUSINSKAIA;Russische Föderation;;
20864702;MYSKI;Russische Föderation;53.71138;87.802202
20864801;KIJZAK;Russische Föderation;;
20864900;MEJDURETCENS;Russische Föderation;;
20865006;OSINNIKI;Russische Föderation;53.631495;87.338093
20865808;KAZ;Russische Föderation;53.109084;87.546299
20866202;SHALYM;Russische Föderation;69.405464;33.087014
20866210;SHALYM;Russische Föderation;69.405464;33.087014
20870006;KEMEROWO;Russische Föderation;55.345023;86.062304
20870105;KEMEROVO;Russische Föderation;55.345023;86.062304
20870402;JURGA I;Russische Föderation;55.729764;84.894452
20870600;JURGA II;Russische Föderation;55.720124;84.927713
20871301;PREDKOMBINAT;Russische Föderation;;
20872309;PLOTNIKOVO;Russische Föderation;55.033761;83.406775
20872507;LENINSK-KUZN.;Russische Föderation;48.697919;45.203217
20874008;TOMSK;Russische Föderation;56.50104;84.992451
20874305;TOMSK GRUZOVOY;Russische Föderation;56.565569;84.91194
20875906;ANZERSKAYA;Russische Föderation;65.214444;36.227222
20880005;ACINSK;Russische Föderation;56.236084;90.490315
20881011;PERSPEKTIVNAYA;Russische Föderation;55.576655;37.140254
20882506;LESOSIBIRSK;Russische Föderation;58.227618;92.496032
20882605;LESOSIBIRSK PER;Russische Föderation;58.227618;92.496032
20884007;NAZAROVO;Russische Föderation;56.013195;90.402565
20885103;UJUR;Russische Föderation;55.325349;89.878543
20885608;TUIM;Russische Föderation;54.330299;89.928495
20886507;BALYKZY;Russische Föderation;;
20887604;KAMYSHTA;Russische Föderation;53.260294;90.690986
20887802;TASHEBA;Russische Föderation;53.676996;91.301909
20887901;TCERNOGORSKIE KOPI;Russische Föderation;;
20888008;ABKAN;Russische Föderation;53.717564;91.429317
20888206;PODSINIJ;Russische Föderation;;
20888305;MINUSSINSK;Russische Föderation;53.697821;91.696317
20889105;SAIANSKAIA;Russische Föderation;;
20890004;KRASNOJARSK;Russische Föderation;56.015283;92.893248
20890103;KRASNOJARSK SEVERNYJ;Russische Föderation;79.156536;103.440172
20891408;ENISEI;Russische Föderation;60.085146;90.635465
20892109;BAZAIKHA;Russische Föderation;56.022051;93.064743
20892703;UIAR;Russische Föderation;50.089722;95.02
20893107;ZAOZERNAJA;Russische Föderation;49.130056;35.872376
20893503;KANSK ENISEISKII;Russische Föderation;56.216814;95.719815
20895805;KARABULA;Russische Föderation;58.038741;97.384764
20903203;SEWEROBAKALSK;Russische Föderation;55.627858;109.314916
20910000;TYNDA;Russische Föderation;55.143833;124.741377
20911206;NAGORNAIA JAKUTSKAIA;Russische Föderation;;
20911404;BERKAKIT;Russische Föderation;56.575729;124.783661
20911503;NERIUNGRI;Russische Föderation;56.661427;124.705816
20920009;TAISHET;Russische Föderation;55.932147;98.010575
20921205;NIJNEUDINSK;Russische Föderation;54.901928;99.024836
20923003;PEREVOZ;Russische Föderation;55.592166;44.540103
20923102;ZIMA;Russische Föderation;53.922585;102.042387
20924407;VIKHOREVKA;Russische Föderation;56.114128;101.186866
20924506;BAGULNAIA;Russische Föderation;;
20924605;BRATSK;Russische Föderation;56.173766;101.603898
20925404;VIDIM;Russische Föderation;56.413124;103.111317
20925701;KORSHUNIHA-ANGARSKAIA;Russische Föderation;;
20926105;IGIRMA;Russische Föderation;56.985812;103.637461
20926204;RUDNOGORSK;Russische Föderation;57.274931;103.742058
20926402;UST-LJIMSK;Russische Föderation;57.984541;102.739596
20927038;UST-KUT;Russische Föderation;56.791039;105.776868
20927103;LENA;Russische Föderation;71.113402;125.59044
20927202;LENA-PEREVALKA;Russische Föderation;71.113402;125.59044
20927806;LENA-VOST;Russische Föderation;47.942714;37.957347
20930008;IRKUTSK;Russische Föderation;52.286974;104.305018
20930909;TCEREMHOVO;Russische Föderation;;
20931006;MAKAREVO;Russische Föderation;;
20931709;MALTA;Russische Föderation;52.841196;103.511252
20931808;USOLE-SIBIRSKOE;Russische Föderation;52.766424;103.638171
20932004;KITOI;Russische Föderation;52.631271;103.8916
20932020;ANGARSK;Russische Föderation;52.51557;103.91716
20932103;KITOI KOMBINATSKAIA;Russische Föderation;;
20932202;ANGARSK/SUHAVSKAJA;Russische Föderation;52.51557;103.91716
20932608;BATAREINAIA;Russische Föderation;;
20932609;BATAREINAIA;Russische Föderation;;
20932806;KAJA;Russische Föderation;59.322502;27.431045
20932905;GONCHAROVO;Russische Föderation;60.704165;28.937828
20933804;BAJKALJSK;Russische Föderation;;
20934802;TIMLJUI;Russische Föderation;;
20934901;SELENGA;Russische Föderation;51.754441;107.548738
20935502;ULAN-UDE;Russische Föderation;51.823879;107.607338
20936906;NAUSHKI;Russische Föderation;50.390153;106.105145
20937003;NAUSHKI I / MONGOLEI;Russische Föderation;50.390153;106.105145
20937102;NAUSHKI II;Russische Föderation;50.390523;106.095836
20937607;TALZY;Russische Föderation;;
20940007;CHITA-2;Russische Föderation;52.027969;113.495015
20940304;BALJAGA;Russische Föderation;;
20942102;KADALA;Russische Föderation;52.009916;113.359493
20944900;SOLOWEWSK IMP/EXP;Russische Föderation;;
20945006;SOLOWEWSK/MONGOLEI;Russische Föderation;;
20946103;PRIARGUNSK;Russische Föderation;50.368238;119.073599
20946202;KRASNOKAMENSK;Russische Föderation;50.096614;118.036131
20946806;SABAIKALSK/CHINA;Russische Föderation;49.664716;117.327561
20947705;SOLNCEVAIA;Russische Föderation;;
20948307;NERTCINSK;Russische Föderation;51.976935;116.569712
20949107;TCERNYCHEWSK-ZABAKALSKI;Russische Föderation;;
20950006;BELOGORSK;Russische Föderation;50.919895;128.483384
20950105;BELOGORSK II;Russische Föderation;45.054843;34.604129
20951707;SKOVORODINO;Russische Föderation;53.973257;123.909222
20952101;BOLSCHOI NEVER;Russische Föderation;;
20953703;MIKHAILO TCHESNOKOVSKAIA;Russische Föderation;;
20954701;BLAGOVESCHENSK;Russische Föderation;50.272776;127.540402
20956300;BUREIA;Russische Föderation;;
20960005;KOMSOMOLSK-NA-AMURE;Russische Föderation;50.567033;136.965895
20960104;KOMSOMOLSK-NA-ARMURE;Russische Föderation;50.567033;136.965895
20962803;BIRIOBIDZHAN-1;Russische Föderation;48.792726;132.935633
20967604;VANINO;Russische Föderation;49.084445;140.253438
20967703;VANINO - UMSCHLAG;Russische Föderation;49.084445;140.253438
20967802;VANINO - EXPORT;Russische Föderation;49.084445;140.253438
20968206;SOVETSKAIA GAVAN-SORTIROVOCHN;Russische Föderation;;
20968404;SOWETSKAIA GAWAN-GOROD;Russische Föderation;48.975523;140.265355
20968701;DZEMGI;Russische Föderation;50.601667;137.197778
20970004;HABAROVSK;Russische Föderation;48.502731;135.06626
20970103;NIKOLAEVKA;Russische Föderation;53.132259;47.221924
20970400;HABAROVSK 1;Russische Föderation;48.496909;135.072865
20972505;LUTCEGORSK;Russische Föderation;46.444832;134.301322
20972802;DALNERECENSK I;Russische Föderation;45.929455;133.74279
20973206;DALNERECENSK II;Russische Föderation;45.946362;133.735038
20973701;RUJINO;Russische Föderation;54.534201;32.763315
20976605;NOVOCHU;Russische Föderation;;
20980003;VLADIVOSTOCK;Russische Föderation;43.173739;132.006451
20980102;WLADIWOSTOK-PEREWALKA;Russische Föderation;43.173739;132.006451
20981308;PERVAIA RETCHKA;Russische Föderation;;
20982405;ARTEM PRIMORSKI I;Russische Föderation;43.369661;132.172475
20982504;ARTEM PRIMORSKI II;Russische Föderation;43.32571;132.216751
20982603;ARTEM PRIMORSKI III;Russische Föderation;43.345715;132.198456
20984500;NAHODKA;Russische Föderation;42.822275;132.883404
20985903;NAKHODKA-VOSTOCHNAIA;Russische Föderation;42.822275;132.883404
20986109;NAKHODKA-VOSTOCHN-EXP;Russische Föderation;42.822275;132.883404
20987008;HASAN IMP/EXP;Russische Föderation;42.431389;130.643728
20987107;HASAN / KOREA;Russische Föderation;42.431389;130.643728
20988303;USSURIJSK;Russische Föderation;43.802313;131.963089
20989202;GRODEKOWO;Russische Föderation;43.85898;133.147475
20993105;NEVELSK;Russische Föderation;51.357507;85.883829
20995308;VOSTOCHNYI-SAHALINSKII;Russische Föderation;;
21000000;;Weißrußland;;
21130005;BREST-CENTRALNYI;Weißrußland;52.1026;23.6914
21130070;BREST-ZENTRALBAHNHOF;Weißrußland;;
21130100;BREST SEVERNYI;Weißrußland;52.626028;24.883211
21130104;BREST-NORDBAHNHOF;Weißrußland;52.110871;23.727996
21130203;BREST VOSTOTCHNYI;Weißrußland;;
21130245;BREST-OSTBAHNHOF;Weißrußland;;
21130385;BREST-POLESKI;Weißrußland;52.094832;23.710705
21130500;BREST-FRG-EKS;Weißrußland;;
21130690;BREST-ZENTRALBAHNHOF;Weißrußland;;
21131276;SHABINKA;Weißrußland;;
21131300;SHABINKA-EXPORT;Weißrußland;;
21131706;VYSOKO LITOVSK;Weißrußland;;
21131755;WYSOKO-LITOWSK;Weißrußland;;
21131896;WYSOKO-LITOWSK EXPORT;Weißrußland;;
21132100;MALORITO-EKS.;Weißrußland;;
21132241;LYSCHIZY;Weißrußland;;
21132332;DUBIZA;Weißrußland;52.620002;27.164362
21132472;WLODAWA;Weißrußland;51.55178;23.55434
21132506;SAKRUTYN;Weißrußland;;
21132605;MALORITA;Weißrußland;51.795399;24.09196
21132647;MALORITO;Weißrußland;;
21132787;KORBIN;Weißrußland;;
21132811;GORODEZ;Weißrußland;52.041684;27.090659
21132951;DROGITSCHIN;Weißrußland;52.185597;24.974926
21133058;SNITOWO;Weißrußland;;
21133199;JANOW PODLASKI;Weißrußland;52.193979;23.212114
21133207;PINSK;Weißrußland;52.112497;26.06346
21133223;PINSK;Weißrußland;52.112497;26.06346
21133363;JASSELDA;Weißrußland;;
21133405;PAROCHONSK;Weißrußland;52.225914;26.448063
21133678;ORANTSCHIZY;Weißrußland;;
21133702;BERESA-KARTUSKAJA;Weißrußland;52.532749;24.899494
21133843;BELOOSERSK;Weißrußland;;
21134080;BRONNAJA GORA;Weißrußland;;
21134114;KOSSOWO-POLESKOJE;Weißrußland;;
21134254;IWAZEWITSCHI;Weißrußland;;
21134395;DOMANOVO;Weißrußland;52.832424;25.480679
21134429;LESNAJA;Weißrußland;54.500616;30.378058
21134569;GRIZEWEZ;Weißrußland;;
21134700;LOSOSNA;Weißrußland;53.500015;23.639437
21134734;LOSOSNA;Weißrußland;53.57143;23.701973
21134874;LOSOSNA-EXPORT;Weißrußland;;
21135103;BRUSGI;Weißrußland;;
21135202;GRODNO;Weißrußland;53.661327;23.811716
21135285;GRADNO;Weißrußland;53.669354;23.813131
21135319;AULS;Weißrußland;53.5023;23.60061
21135459;SKIDEL;Weißrußland;53.58666;24.250349
21135624;CNL BREMEN/HANNOVER CBF SEELZE;Weißrußland;52.394919;9.593941
21136200;BERESTOWIZA;Weißrußland;;
21136606;BENIAKONE-EKS.;Weißrußland;;
21136796;WOLKOWYSK-ZENTRAL.;Weißrußland;;
21136820;SELNA;Weißrußland;;
21136960;OSERNIZA;Weißrußland;;
21137067;SLONIM;Weißrußland;53.087513;25.308719
21137232;MOSTY;Weißrußland;53.410236;24.533865
21137372;ROSS;Weißrußland;;
21137406;ROSHANKA;Weißrußland;;
21137604;LIDA;Weißrußland;53.887384;25.289438
21137687;LIDA;Weißrußland;53.887384;25.289438
21137711;GUDY;Weißrußland;53.968152;25.245659
21137851;BASTUNY;Weißrußland;54.080757;25.288392
21137901;BENJAKONE;Weißrußland;;
21138099;GUTNO;Weißrußland;;
21138123;NEMAN;Weißrußland;54.318651;24.245194
21138263;NOVOENKJA;Weißrußland;;
21138438;MORDYTSCHI;Weißrußland;;
21138503;BARANOVICHI-CENTRALNYE;Weißrußland;53.142606;26.027089
21138578;BARANOWITSCHI ZENTR.;Weißrußland;;
21138602;GORODEJA;Weißrußland;53.3149;26.5399
21138743;STOLBZY;Weißrußland;;
21138800;GORYN-EKS.;Weißrußland;;
21138909;BARANOVITCHI POLESSKIE;Weißrußland;53.123963;26.045717
21138917;BARANOWITSCHI POL.;Weißrußland;;
21139014;KLEZK;Weißrußland;53.063721;26.639262
21139154;TIMKOWITSCHI;Weißrußland;;
21139204;GORYNJ;Weißrußland;;
21139402;LUNINEC;Weißrußland;52.219247;26.719522
21139469;LUNINEZ;Weißrußland;52.251394;26.806643
21139527;LJUSCHTSCHA;Weißrußland;;
21139634;GANZEWITSCHI;Weißrußland;;
21139949;LJACHOWITSCHI;Weißrußland;;
21140095;MINSK-GUETERBAHNHOF;Weißrußland;;
21140129;MINSK-NORDBAHNHOF;Weißrußland;;
21140202;MINSK-PASSAJIRSKII;Weißrußland;53.805332;27.495285
21140301;MINSK VOSTOTCHNYI;Weißrußland;;
21140343;MINSK-OSTBAHNHOF;Weißrußland;;
21140400;STEPIANKA;Weißrußland;;
21140434;STEPJANKA;Weißrußland;;
21140574;MINSK-SUEDBAHNHOF;Weißrußland;;
21140749;OSERISCHTSCHE;Weißrußland;;
21140889;KOLODISCHTSCHI;Weißrußland;;
21140913;GORODISCHTSCHE;Weißrußland;;
21141002;SMOLEVICI;Weißrußland;54.019076;28.141
21141010;SMOLEWITSCHI;Weißrußland;54.019076;28.141
21141150;SCHEMETOWO;Weißrußland;;
21141200;KRASNOJE SNAMJA;Weißrußland;;
21141291;KRASNOE SNAMJA;Weißrußland;;
21141309;ZHODINO;Weißrußland;54.101614;28.347126
21141325;SHODINO;Weißrußland;54.101614;28.347126
21141408;BORISOV;Weißrußland;54.189216;28.540968
21141465;BORISSOW;Weißrußland;54.214431;28.508436
21141507;NOWOSSADY;Weißrußland;;
21141630;PRIJAMINO;Weißrußland;;
21141770;KRUPKI;Weißrußland;54.326961;29.142603
21141804;BOBR;Weißrußland;54.320681;29.264521
21142042;TOLOTSCHIN;Weißrußland;;
21142182;KOCHANOWO;Weißrußland;54.605535;18.104493
21142307;USCHA;Weißrußland;53.480783;26.360148
21142356;USCHA;Weißrußland;53.480783;26.360148
21142521;VEUXHAULLES;Weißrußland;47.944994;4.802531
21143412;DUBRAWY;Weißrußland;;
21143552;RADOSCHKOWITSCHI;Weißrußland;;
21143693;BELORUSZ;Weißrußland;53.709807;27.953389
21143701;DEGTJAREVKA;Weißrußland;;
21143727;DEGTJAREWKA;Weißrußland;;
21144444;NEGORELOE;Weißrußland;;
21144501;KOIDANOVO;Weißrußland;;
21144584;KOJDANOWO;Weißrußland;;
21144618;FANIPOL;Weißrußland;53.746238;27.337564
21144899;KOLJADITSCHI;Weißrußland;;
21145029;MICHANOWITSCHI;Weißrußland;;
21145169;GALOWO;Weißrußland;;
21145201;SHABINEU;Weißrußland;;
21145219;SCHABANY;Weißrußland;;
21145334;RUDENSK;Weißrußland;53.597708;27.861113
21145474;PUCHOWITSCHI;Weißrußland;;
21146225;LANITSCHI;Weißrußland;;
21146365;GRODSJANKA;Weißrußland;;
21146407;OSIPOWITSCHI;Weißrußland;;
21146472;OSSIPOWITSCHI I;Weißrußland;;
21146704;TATARKA;Weißrußland;53.256051;28.81489
21146985;MIRADINO;Weißrußland;;
21147009;BOBRUJSK;Weißrußland;53.144607;29.221375
21147082;BOBRUISK;Weißrußland;53.144607;29.221375
21147256;RABKOR;Weißrußland;52.612664;28.846407
21147561;BROSHA;Weißrußland;;
21147629;KRASNY BROD;Weißrußland;49.240098;21.897449
21147702;BEREZINA;Weißrußland;53.512533;29.282523
21147736;BERESINA;Weißrußland;53.512533;29.282523
21147876;TELUSCHKA;Weißrußland;;
21148221;SOLIGORSK;Weißrußland;52.789947;27.535962
21148288;KALI I;Weißrußland;;
21148304;KALIJ III;Weißrußland;;
21148312;KALI III;Weißrußland;;
21148502;KALI 4;Weißrußland;;
21148593;KALI IV;Weißrußland;;
21148627;SLUZK;Weißrußland;53.02105;27.554013
21149039;URETSCHJE;Weißrußland;;
21149104;STARIE DOROGI;Weißrußland;53.040745;28.269589
21149179;STARYE DOROGI;Weißrußland;;
21150003;GOMEL;Weißrußland;52.441176;30.987846
21150201;NOVOBELICKAIA;Weißrußland;;
21150516;ZAKOPYTE;Weißrußland;;
21150706;TEREHOVKA;Weißrußland;;
21150805;TEREHOWKA-EKS.;Weißrußland;;
21151001;TERIUHA-EKS.;Weißrußland;;
21151209;SLOWETCNO-EKS.;Weißrußland;;
21151407;BARBAROV;Weißrußland;;
21151704;MOZYR;Weißrußland;52.032208;29.222313
21153809;KALINKOVITSH;Weißrußland;;
21154203;SVETLOGORSK-NA-BER.;Weißrußland;;
21154807;RECICA;Weißrußland;52.36354;30.392397
21154906;TSENTROLIT;Weißrußland;;
21155002;JLOBIN;Weißrußland;52.890381;30.036736
21156604;MOGILEV 2 NA DNEPRE;Weißrußland;;
21156687;MOGILEV;Weißrußland;53.760758;30.19133
21157800;ZADNEPROWSKAIA;Weißrußland;53.871381;27.664417
21159202;KLIMOVICI;Weißrußland;;
21160002;VITEBSK;Weißrußland;55.228853;30.165161
21160606;GORODOK;Weißrußland;55.461862;29.987444
21160804;ESERISHE;Weißrußland;;
21161000;EZERIQE-EKS.;Weißrußland;;
21161208;ALEQA-EKS.;Weißrußland;;
21161307;POLOTSK;Weißrußland;55.483157;28.799062
21161406;BIGOSOWO-EKS.;Weißrußland;;
21161703;BIGOSOVO;Weißrußland;55.8338;27.7386
21162909;MOLODETCNO;Weißrußland;;
21163105;OSHMIANI;Weißrußland;;
21163808;BUDSLAV;Weißrußland;;
21163907;PARAFJANOV;Weißrußland;;
21164400;WOROPAJEVO;Weißrußland;;
21165506;NOVOPOLOZK;Weißrußland;;
21165605;ZAOLSHA;Weißrußland;;
21165803;ZAOLCHA-EKS.;Weißrußland;;
21166405;ORSCHA-CENTRALNAIA;Weißrußland;54.5109;30.3236
21166702;ORCHA VOSTOTCHNAIA;Weißrußland;;
21168302;CASNIKI;Weißrußland;54.847813;29.173069
21168906;CHLUESTINO;Weißrußland;;
21169003;OSINOVKA;Weißrußland;54.6489;30.6583
21169102;OSINOWKA-EKS.;Weißrußland;;
21179190;BREST SIEWIERNY;Weißrußland;53.141785;26.038506
21257121;ANTW W-N G K1712;Weißrußland;;
21320606;KIEV PETROVKA;Weißrußland;;
21321208;WASILKOW;Weißrußland;53.1986;23.20779
21322602;BORISPOL;Weißrußland;;
21322701;BARYSHEVKA;Weißrußland;;
21327403;KONOTOP;Weißrußland;52.418429;26.399604
21328203;SHOSTKA;Weißrußland;51.875704;33.496615
21328807;ZERNOVO IMP/EXP;Weißrußland;;
21330001;JMERINKA;Weißrußland;;
21332601;BAR;Weißrußland;;
21333302;DUNAEWCY;Weißrußland;;
21341404;SLAWUTA 1;Weißrußland;;
21342402;BERDITCHEW;Weißrußland;;
21343202;SKVIRA;Weißrußland;49.732875;29.66429
21344408;MIRONOVKA;Weißrußland;;
21347401;MALIN (UKRAINE);Weißrußland;;
21355503;SARNY;Weißrußland;;
21356204;DUBROVIZA;Weißrußland;;
21356808;KOSTOPOL;Weißrußland;;
21356907;MOKWIN;Weißrußland;;
21357806;LUCK;Weißrußland;;
21359307;KLEVAN;Weißrußland;;
21364109;BORSCEV;Weißrußland;;
21371401;SOKAL;Weißrußland;53.878209;27.898248
21372508;RAVA-RUSSKAIA;Weißrußland;;
22000000;;UKRAINE;;
22029322;PETRONELL-CARNUNTUM;UKRAINE;48.1129;16.865078
22280105;TSCHOP;UKRAINE;48.450235;22.247315
22280107;TSCHOP;UKRAINE;48.487084;22.244427
22320002;DARNIZA;UKRAINE;;
22320101;KIEW-MOSKOWSKI;UKRAINE;50.405083;30.536049
22320200;KIEV TOVARNYI;UKRAINE;50.4501;30.5234
22320309;KIEV-PASSAJIRSKII;UKRAINE;50.365394;30.537501
22320408;KIEV-OKTIABRSKI;UKRAINE;50.4501;30.5234
22320507;KIEW-WOLANSKI;UKRAINE;50.4501;30.5234
22320606;KIEV PETROVKA;UKRAINE;49.942129;30.318583
22320705;KIEV-DNEPROWSKI;UKRAINE;50.4501;30.5234
22321208;WASILKOW;UKRAINE;53.1986;23.20779
22322602;BORISPOL;UKRAINE;50.3482;30.95615
22322701;BARYSHEVKA;UKRAINE;50.350705;31.318891
22323907;GORNOSTAEWKA-EKS;UKRAINE;;
22324004;NESHIN;UKRAINE;48.788;26.8481
22325001;TSCHERNIPOW;UKRAINE;51.3552;30.9371
22325902;BACHMATSCH-KIEWSKI;UKRAINE;51.182819;32.832992
22326108;BACHMATSCH-GBF.;UKRAINE;51.182819;32.832992
22326405;WOLFINO-EKS.;UKRAINE;;
22327205;HOROBITCI-EKS.;UKRAINE;;
22327403;KONOTOP;UKRAINE;51.222972;33.120526
22328203;SHOSTKA;UKRAINE;51.875704;33.496615
22328708;CHUTOR-MICHAJLOWSKI;UKRAINE;;
22328807;ZERNOVO IMP/EXP;UKRAINE;;
22329300;WOROSHBA;UKRAINE;;
22330001;JMERINKA;UKRAINE;48.932226;28.112247
22330100;VOLOCHISK;UKRAINE;49.534516;26.209307
22330209;VOITOVCY;UKRAINE;;
22330308;NARKEVICHI;UKRAINE;49.516861;26.63776
22330605;GRETSCHANY;UKRAINE;;
22330704;KHMELNITSKII;UKRAINE;49.305742;27.035317
22331009;DERAZNIA;UKRAINE;49.267288;27.432148
22331900;MOGILEV PODOLSKII;UKRAINE;48.458439;27.792929
22332601;BAR;UKRAINE;49.076848;27.682612
22332908;KAMENETS PODOLSKII;UKRAINE;48.696716;26.582536
22333302;DUNAEWCY;UKRAINE;;
22333708;JARMOLINZY;UKRAINE;;
22334102;STAROKONSTANTINOW !;UKRAINE;49.754683;27.21216
22334607;ZERNOWO-EKS.;UKRAINE;;
22335802;WINNIZA;UKRAINE;49.129492;28.543409
22336800;KALINOWKA 1;UKRAINE;48.257772;28.630527
22340000;SHEPETOVKA;UKRAINE;50.048225;27.086546
22340109;SCHEPETOWKA PODOLSKA;UKRAINE;;
22341305;SLAWUTA 2;UKRAINE;50.298731;26.800036
22341404;SLAWUTA 1;UKRAINE;;
22341701;POLONNOE;UKRAINE;50.122469;27.506767
22342402;BERDICHEV;UKRAINE;49.82813;28.527316
22342709;KASATIN-GBF;UKRAINE;;
22342717;KAZATIN-PASSAJIRSKII;UKRAINE;49.681218;28.860933
22343202;SKVIRA;UKRAINE;49.732875;29.66429
22343509;FASTOW 1;UKRAINE;50.039735;29.781329
22343806;BELAIA TSERKOV;UKRAINE;49.796798;30.131085
22344408;MIRONOWKA;UKRAINE;49.532367;31.007235
22345603;SHITOMIR;UKRAINE;50.300375;28.698984
22346205;KOROSTEN JITOMIRSKII;UKRAINE;50.93443;28.600683
22346304;KOROSTEN;UKRAINE;50.916557;28.734327
22346809;OWRUTSCH;UKRAINE;51.326831;28.802897
22347401;MALIN (UKRAINE);UKRAINE;50.76968;29.260488
22348003;NOWOGRAD-WOLYNSKI;UKRAINE;;
22348300;BEREJEST-EKS.;UKRAINE;;
22349209;BELOKOROWITSCHI;UKRAINE;;
22349407;TCIGINOK-EKS.;UKRAINE;;
22350009;ZDOLBUNOV;UKRAINE;50.410806;26.241572
22350306;DUBNO;UKRAINE;50.400914;25.759067
22350603;VERBA;UKRAINE;50.271588;25.605511
22350801;RADIVILOV;UKRAINE;50.128501;25.253031
22350900;BRODY;UKRAINE;50.078807;25.147894
22351304;IAGODIN;UKRAINE;51.2134;24.5033
22351403;JAGODIN-EXPORT BRD;UKRAINE;49.789168;13.903144
22352104;LIUBOML;UKRAINE;51.216226;24.015608
22352203;MACEEV;UKRAINE;51.24;24.7328
22352302;TSCHERKASSY-WOLINSKY;UKRAINE;;
22354001;KOVEL;UKRAINE;51.229009;24.847213
22354100;ZABOLOTE-EKS.;UKRAINE;;
22355107;RAFALOVKA;UKRAINE;51.323739;25.879954
22355503;SARNY;UKRAINE;51.349128;26.613192
22356204;DUBROVIZA;UKRAINE;;
22356501;UDRICK-EKS.;UKRAINE;;
22356600;ROVNO;UKRAINE;50.52505;26.250709
22356808;KOSTOPOL;UKRAINE;50.87907;26.442322
22356907;MOKWIN;UKRAINE;50.951151;26.799408
22357707;GNIDAVA;UKRAINE;49.843775;25.827996
22357806;LUCK;UKRAINE;50.752717;25.326942
22359000;KIVERCY;UKRAINE;50.838869;25.41843
22359307;KLEVAN;UKRAINE;50.744478;26.017192
22360008;TERNOPOL;UKRAINE;49.447909;25.584784
22363309;KOPYTSCHINZY;UKRAINE;;
22364109;BORSCEV;UKRAINE;;
22364406;BUTCHATCH;UKRAINE;;
22365205;ZALESCIKI;UKRAINE;49.004682;24.903393
22365403;STEFANESCHTY;UKRAINE;;
22366203;KICMAN;UKRAINE;48.441301;25.770417
22366302;LUSHANY;UKRAINE;;
22366500;TSCHERNOWZY-SEWERNAJ;UKRAINE;;
22366609;TCHERNOVTSY;UKRAINE;48.292079;25.935837
22368605;VADUL SIRET;UKRAINE;48.030073;25.960692
22370007;LVOV;UKRAINE;49.856942;23.909509
22370205;PODSAMTSCHE;UKRAINE;49.894;23.894
22370304;SKNILOV;UKRAINE;49.794213;23.935598
22370403;KLEPAROW;UKRAINE;;
22370908;SAPESHANKA;UKRAINE;50.0627;24.2453
22371005;DOBROTVOR;UKRAINE;50.203671;24.386725
22371302;TSCHERWONOGRAD;UKRAINE;50.387177;24.219945
22371401;SOKAL;UKRAINE;50.491627;24.300128
22372508;RAVA-RUSSKAIA;UKRAINE;50.226094;23.617216
22373506;MOSTISKA;UKRAINE;49.802673;23.146924
22373605;MOSTISKA II EXPORT BRD;UKRAINE;49.802673;23.146924
22373803;MOSTISKA II EXPORT (NACH TSCHECHEI);UKRAINE;49.802673;23.146924
22374207;MOSTISKA;UKRAINE;49.806487;23.127362
22374900;CHYROW;UKRAINE;49.533361;22.852026
22375204;TURKA;UKRAINE;49.154057;23.028006
22375709;SAMBOR;UKRAINE;49.492408;23.185525
22376301;DROGOBYCH;UKRAINE;49.351506;23.40086
22376400;BORISLAV;UKRAINE;49.291247;23.427186
22376517;TRUSKAVEC;UKRAINE;49.281565;23.370879
22376715;SLAVSKO;UKRAINE;49.000839;23.379763
22376905;SKOLE;UKRAINE;49.135139;23.443208
22377408;STRYJ;UKRAINE;49.274904;23.658717
22377416;MORSHIN;UKRAINE;49.155712;23.867457
22379107;CHODOROW;UKRAINE;49.340637;24.216589
22379800;KRASNE;UKRAINE;49.919741;24.617908
22380006;MUKATSCHEVO;UKRAINE;48.456455;22.721101
22380105;CHOP;UKRAINE;48.443301;22.253382
22380204;TCOP-WNR-EKS.;UKRAINE;;
22380402;TSCHOP EXPORT (NACH JUGOSLAWIEN);UKRAINE;48.434043;22.210104
22380501;TSCHOP EXPORT (NACH OESTERREICH);UKRAINE;48.434043;22.210104
22380600;TSCHOP EXPORT (NACH TESCHECHEI);UKRAINE;48.434043;22.210104
22381004;UJGOROD;UKRAINE;48.5993;22.299392
22382200;SIANKI;UKRAINE;49.024517;22.902575
22382408;JESEN;UKRAINE;;
22382507;BATEVO;UKRAINE;48.373266;22.429278
22383000;BARKASSOVO;UKRAINE;;
22383109;STRIBATSCHOVO;UKRAINE;50.30074;30.590439
22383208;KLJUTSCHARKY;UKRAINE;48.414835;22.646968
22383604;SVALIAVA;UKRAINE;48.604979;22.923296
22383703;VOLOVEZ;UKRAINE;48.7683;22.9611
22383802;LAVOCHNE;UKRAINE;48.870657;23.223522
22384107;BEREGOVO;UKRAINE;48.197187;22.637095
22384206;BORSHAVA;UKRAINE;48.639444;23.246667
22384305;WILOK;UKRAINE;;
22384404;WINOGRADIV-SAKARPATSKY;UKRAINE;;
22384701;KOROLEVO;UKRAINE;48.15257;23.136912
22384800;TSCHERNOTISSOW;UKRAINE;;
22384808;CHERNOTISSOV;UKRAINE;48.071505;23.057481
22384818;DJAKOVO;UKRAINE;45.309997;18.409782
22385102;HUST;UKRAINE;48.173463;23.297248
22385302;HUST;UKRAINE;48.162882;23.337424
22385401;BUSHTINO;UKRAINE;48.055647;23.490907
22385500;TIACHEVO;UKRAINE;48.449306;22.711711
22385609;TERESWA;UKRAINE;48.000615;23.696632
22385708;SOLOTVINO I;UKRAINE;47.955709;23.877579
22386508;VOROHTA;UKRAINE;48.294823;24.517579
22386607;DELJATIN;UKRAINE;;
22387308;BOLEHOV;UKRAINE;;
22387704;KALUSH;UKRAINE;49.041426;24.395038
22388108;BURCHTYN;UKRAINE;49.260567;24.62688
22388306;IAMNICA;UKRAINE;48.984807;24.704682
22388405;IWANO-FRANKOWSK;UKRAINE;48.922633;24.711117
22388504;CHRYPLIN;UKRAINE;;
22388801;KOLOMYJA;UKRAINE;48.530492;25.041205
22389205;ZABOLOTOV;UKRAINE;48.472338;25.279246
22389304;SNIATYN;UKRAINE;48.446424;25.569911
22389809;NEPOLOKOVCY;UKRAINE;;
22400218;ODESSA-GLAVNAIA;UKRAINE;46.51525;30.703991
22400309;ODESSA-PORT;UKRAINE;46.726215;31.003876
22400408;ODESSA-PORT EXPORT;UKRAINE;46.726215;31.003876
22400804;ODESSA-PERESYP;UKRAINE;46.52502;30.726413
22401505;RAUCHOWKA 1;UKRAINE;;
22401811;NOVOUKRAINKA;UKRAINE;48.322646;31.518762
22401901;AKKARSHA;UKRAINE;;
22402107;ILICHEVSK-EXPORT;UKRAINE;;
22402503;ILLICHIVSK-POROMMA;UKRAINE;46.295224;30.648086
22403907;ARZYS;UKRAINE;45.978844;29.423555
22404509;IZMAIL;UKRAINE;45.350194;28.850192
22405001;BEREZINO;UKRAINE;46.231082;29.201948
22405100;ODESSA-SASTAWA 1;UKRAINE;46.482526;30.72331
22405209;USATOVO;UKRAINE;46.532867;30.657932
22405506;KARPOVO;UKRAINE;46.76013;30.361211
22405605;RASDELNAJA 1;UKRAINE;46.879328;30.109036
22405803;KUCHURGAN;UKRAINE;46.812239;29.959419
22405902;MIGAJEWO;UKRAINE;;
22406405;ZATISHE;UKRAINE;47.335583;29.879328
22406801;KOTOVSK;UKRAINE;47.694841;29.609208
22407809;BORSCHTSCHI;UKRAINE;;
22407908;SLOBODKA;UKRAINE;47.730845;29.357034
22408104;KODYMA;UKRAINE;47.974439;29.252182
22408302;RUDNIZA;UKRAINE;;
22408500;WAPNJARKA;UKRAINE;48.33309;29.036569
22408906;TROSTJANEZ-PODOLSKI;UKRAINE;50.481064;34.965436
22409201;SJATKOWZY;UKRAINE;;
22409706;GAIVORON;UKRAINE;48.336714;29.868635
22410000;IM TARASA SHEVCHENKO;UKRAINE;46.47844;30.756587
22410001;SNAMENKA;UKRAINE;48.4253;32.823848
22410019;ZNAMENKA-PASSAJIRSKAIA;UKRAINE;48.1394;32.9304
22410308;KORISTOWKA;UKRAINE;48.1918;33.3224
22410407;ALEKSANDRIJA;UKRAINE;48.367535;33.209694
22411108;TSCHERNOLESSKAJA;UKRAINE;;
22411405;KIROVOGRAD;UKRAINE;48.507933;32.262317
22411504;LELEKOVKA;UKRAINE;48.241702;33.243318
22411801;NOVOUKRAINKA;UKRAINE;48.322646;31.518762
22411900;POMOSCHNAJA;UKRAINE;48.006279;31.317724
22412304;PODGORODNAJA;UKRAINE;49.708857;31.663102
22412700;KOLOSOWKA;UKRAINE;;
22413005;WOZNESENSK;UKRAINE;47.5605;31.336117
22414102;DOLINSKAJA;UKRAINE;48.113256;32.765868
22415109;NIKOLAEV;UKRAINE;46.922567;32.007492
22415208;NIKOLAEV-GRUZOVOI;UKRAINE;46.95756;31.975659
22416107;SNIGIRJOWKA;UKRAINE;;
22416800;KAHOVKA;UKRAINE;46.811721;33.490196
22417303;KULBAKINO;UKRAINE;46.912938;32.083039
22417808;HERSON;UKRAINE;46.629459;32.554434
22419408;TERNOVKA NIKOLAEVKAIA;UKRAINE;47.057929;31.955301
22420000;IM.TARASA SCHWETSCH;UKRAINE;49.191986;31.631228
22421107;CHRISTINOWKA;UKRAINE;;
22421206;UMAN;UKRAINE;48.769929;30.215441
22421503;ZVENIGORODKA;UKRAINE;49.076206;30.96999
22422303;KORSUN;UKRAINE;48.574822;34.756885
22422600;ZWETKOWO;UKRAINE;;
22422691;WLADIMIROWKA;UKRAINE;;
22423103;FUNDUKLEEVKA;UKRAINE;48.974063;32.250906
22424200;TCHERKASSY;UKRAINE;49.192667;32.372534
22424408;ZOLOTONOCHA 2;UKRAINE;49.673834;32.046825
22425009;KREMENTSCHUG;UKRAINE;48.864592;33.461567
22425603;ZOLOTNICHINO;UKRAINE;;
22427005;GADIACH;UKRAINE;;
22427302;ROMODAN;UKRAINE;49.74267;33.395574
22427401;HOROL;UKRAINE;49.783653;33.252664
22428003;SVETLOVODSK;UKRAINE;49.049684;33.228469
22428201;KAGAMLYKSKAIA;UKRAINE;;
22428300;GREBENKA;UKRAINE;50.1221;32.4324
22429001;PRILUKI;UKRAINE;50.588471;32.387583
22429704;LUBNY;UKRAINE;50.017317;32.990844
22430009;KUPJANSK-RBF.;UKRAINE;;
22430504;SHEVCHENKOVO LUJNOE;UKRAINE;49.676823;37.297576
22431809;TOPOLI-EKS;UKRAINE;;
22440008;CHARKOW-SORT.;UKRAINE;50.016357;36.186775
22440057;HARKOV-PASSAJIRSKII;UKRAINE;49.9361;36.273
22440206;OSNOWA;UKRAINE;;
22440404;KHARKOV TCHERVONOZAVODSKII;UKRAINE;49.927592;36.21965
22440800;NOWAJA BAWARIA;UKRAINE;49.955993;36.154899
22441105;MEREFA;UKRAINE;49.806026;36.050345
22441204;KAZATCIA LOPAN-EKS.;UKRAINE;;
22441600;KRASNOGRAD;UKRAINE;49.373049;35.461353
22442806;LOSOWAJA;UKRAINE;48.7363;36.1894
22443309;LIHACEVO;UKRAINE;;
22443606;ISJUM;UKRAINE;49.212145;37.266501
22444000;LIMAN;UKRAINE;49.594561;36.464321
22445304;SUMY;UKRAINE;50.89311;34.6155
22445403;TOVARNAJY;UKRAINE;;
22445601;BASSY;UKRAINE;60.185418;25.017395
22445908;LEBEDINSKAIA;UKRAINE;50.874492;34.779738
22448506;POLTAVA KIEVSKAIA;UKRAINE;49.588267;34.551417
22448704;POLTAWA-JUSHNAJA;UKRAINE;49.588267;34.551417
22449405;SOVNARKOMOVSKAIA;UKRAINE;;
22449603;LOBOTIN;UKRAINE;;
22450007;NISHNEDNJEPR.-USEL;UKRAINE;;
22450205;WSTRETSCHNY;UKRAINE;;
22450304;DNEPROPETROVSK GRUZOVOI;UKRAINE;48.420744;34.991303
22450700;NIJNEDNEPROVSK-PRISTAN;UKRAINE;;
22451104;DNEPROPETROVSK;UKRAINE;48.176359;34.944642
22451401;DIEWKA;UKRAINE;;
22451609;KARNAUHOVKA;UKRAINE;;
22451708;PRAVDA;UKRAINE;49.349862;36.392086
22452003;NOWOMOSKOWSK DNJEPR;UKRAINE;48.643827;35.23381
22452904;MINERALNAIA;UKRAINE;;
22453506;SINELNIKOWO 2;UKRAINE;48.0265;35.418333
22453605;SINELNIKOWO 1;UKRAINE;49.003508;36.129839
22454207;TSCHAPLINO;UKRAINE;;
22454504;PAVLOGRAD I;UKRAINE;48.529448;35.903257
22455006;PAVLOGRAD II;UKRAINE;48.527622;35.837976
22455808;DNJEPRODSERSHINSK;UKRAINE;48.273309;34.623392
22455907;TRITUZNAIA;UKRAINE;;
22456004;BAGLEJ;UKRAINE;48.48095;34.647531
22456301;VERHNEDNEPROVSK;UKRAINE;;
22456400;WERCHOWZEWO;UKRAINE;47.9532;34.2498
22456806;PJATICHATKI;UKRAINE;47.911;33.8862
22457002;SHELTYE WODY;UKRAINE;;
22457101;SAWRO;UKRAINE;;
22458000;SAKSAGAN;UKRAINE;48.344427;33.837353
22458307;DEWLADOWO;UKRAINE;;
22460006;SAPOROSHE-LEWOJE;UKRAINE;;
22460600;SAPOROSHE 2;UKRAINE;47.821429;35.184263
22460709;SAPOROSHE 1;UKRAINE;47.863018;35.030485
22461905;TAWRITSCHESK;UKRAINE;;
22462408;KAMYSCH SARJA;UKRAINE;;
22463000;POLOGI;UKRAINE;47.472679;36.262549
22464503;ZAPOROJIE GRUZOVAIA;UKRAINE;;
22464701;WOLNJANSK;UKRAINE;;
22466003;NIKOPOL;UKRAINE;47.56746;34.394815
22466607;APOSTOLOWO;UKRAINE;47.660528;33.72054
22466805;RADUSHNAIA;UKRAINE;;
22467001;KRIWOJ ROG HBF.;UKRAINE;;
22467308;KRIVOI ROG ZAPADNYI;UKRAINE;47.910483;33.391783
22467506;UKRAINSKAJA;UKRAINE;48.096803;37.362549
22467605;MOISSEJEWKA;UKRAINE;;
22470005;DSHANKOJ;UKRAINE;45.7108;34.3947
22471102;KERTCH;UKRAINE;43.501746;39.067109
22471607;FEODOSIIA;UKRAINE;45.031933;35.382433
22471805;AWAZOWSKAIA;UKRAINE;;
22472605;KRASNOPEREKOPSK;UKRAINE;45.960533;33.780932
22473009;SEVASTOPOL TOVARNYI;UKRAINE;44.558441;33.490414
22473900;SIMFEROPOL;UKRAINE;44.941359;34.066059
22474007;SIMFEROPOL GRUZOVOI;UKRAINE;44.960416;34.081869
22474106;OSTRIAKOVO;UKRAINE;45.1205;34.0191
22474403;SAKI;UKRAINE;45.131053;33.594107
22474601;EVPATORIJA-TOVARNAJA;UKRAINE;;
22474700;EVPATORIJA-TOV. EXP/IMP;UKRAINE;;
22474809;ELEVATORNAIA;UKRAINE;45.3753;34.1767
22475038;OTRADNAIA;UKRAINE;50.366761;30.386845
22475400;NOVOALEKSEEVKA;UKRAINE;46.293577;34.698075
22476002;MELITOPOL;UKRAINE;46.836661;35.3406
22476309;FJODOROWKA;UKRAINE;;
22477604;WERCHNI TOKMAK 1;UKRAINE;;
22478008;BERDA;UKRAINE;46.794204;36.770313
22478107;BERDJANSK;UKRAINE;46.773771;36.803478
22480004;JASINOWATAJA;UKRAINE;;
22480038;IASINOVATAIA-PASSAJIRSKAIA;UKRAINE;47.9294;37.8174
22480103;IASINOVATAIA II;UKRAINE;48.131836;37.872828
22480202;MAKEEVKA-PASSAJIRSKAIA;UKRAINE;47.9178;38.0646
22480400;DONEZK;UKRAINE;48.015883;37.80285
22480509;RUTTSCHENKOWO;UKRAINE;;
22482000;KRASNOARMEJSK;UKRAINE;48.282193;37.18478
22482703;OTSCHERETINO;UKRAINE;;
22482802;AWDEJEWKA;UKRAINE;;
22483008;GORLOWKA;UKRAINE;48.3071;38.029633
22483503;MAKEEVKA;UKRAINE;48.045956;37.96669
22483800;LARINO;UKRAINE;47.885392;37.928703
22484709;MARIUPOL;UKRAINE;;
22485607;MARIUPOL SORTIROVOTCHNYI;UKRAINE;;
22486209;WOLNOWACHA;UKRAINE;;
22487207;KWACHINO-EKS.;UKRAINE;;
22487801;ILOWAJSK;UKRAINE;;
22487900;KHARTSYZSK;UKRAINE;;
22488106;KRINITSCHNAJA;UKRAINE;;
22490003;KRASNY LIMAN;UKRAINE;48.8826;37.76
22490201;SLAWJANOGORSK;UKRAINE;;
22491209;KONSTANTINOWKA;UKRAINE;;
22491803;KRAMATORSK;UKRAINE;48.6878;37.479
22492009;SLAWJANSK;UKRAINE;;
22492108;SLAVIANSK-VETKA;UKRAINE;48.847976;37.595324
22493601;DUBOWO;UKRAINE;48.650627;37.926103
22493908;NIKITOWKA;UKRAINE;49.423997;36.355492
22494609;ARTEMOVSK II;UKRAINE;48.58533;37.979154
22495002;SEWERSK;UKRAINE;48.873935;38.104791
22495408;STACHANOV;UKRAINE;48.560407;38.648718
22495507;PERVOMAISK;UKRAINE;48.045125;30.888432
22496000;POPASNAJA;UKRAINE;48.628242;38.372715
22496406;STUPKI;UKRAINE;49.537427;25.749469
22496505;ARTEMOVSK I;UKRAINE;48.598667;37.998037
22497800;KAMYSCHEWACHA;UKRAINE;;
22498402;NOVOZOLOTAREVKA;UKRAINE;48.864934;38.272937
22498501;LISICHANSK;UKRAINE;48.906615;38.443361
22498709;RUBEJNOE;UKRAINE;49.0016;38.3786
22500009;DEWALZEWO-RBF;UKRAINE;;
22500207;DEBALCEVO;UKRAINE;48.33406;38.406203
22500603;BARAK;UKRAINE;;
22500702;KRASNAIA MOGILA-EKS.;UKRAINE;;
22500801;KRASNAIA MOGILA-EKS.;UKRAINE;;
22500900;DOLSHANSKAJA;UKRAINE;49.115274;29.195373
22501106;GALUTA-EKS.;UKRAINE;;
22503102;TSCHERNUCHINO;UKRAINE;;
22504803;IZWARINO-EKS.;UKRAINE;;
22505305;GLAFIROWKA;UKRAINE;;
22505404;LUTOGINO;UKRAINE;48.400596;39.201531
22505602;KONOPLJANOWKA;UKRAINE;49.675987;33.819529
22506006;RODAKOWO;UKRAINE;48.2641;38.8534
22507004;LUGANSK GRUZOVOI;UKRAINE;48.568982;39.242279
22507103;LUGANSK;UKRAINE;48.427821;39.147958
22507608;KONDRASCHEWSKAJA-N.;UKRAINE;;
22508507;SEMEJKINO-NOWOJE;UKRAINE;;
22547422;VISNOVA;UKRAINE;48.764356;21.935634
22561522;TARGU NEAMT;UKRAINE;46.849494;26.605832
22660100;AKTJUBINSK TOV.;UKRAINE;;
23390104;TIRASPOL;Moldawien;46.845843;29.621703
23390609;BENDERY 2;Moldawien;46.845072;29.459052
23391201;KICHINEV;Moldawien;47.010453;28.86381
23443309;LIHACEVO;Moldawien;;
23443606;ISJUM;Moldawien;;
23445304;SUMY;Moldawien;;
23445403;TOVARNAJY;Moldawien;;
23445908;LEBEDINSKAIA;Moldawien;;
23449405;SOVNARKOMOVSKAIA;Moldawien;;
23450700;NIJNEDNEPROVSK-PRISTAN;Moldawien;;
23451401;DIEWKA;Moldawien;;
23451609;KARNAUHOVKA;Moldawien;;
23451708;PRAVDA;Moldawien;47.90579;29.350827
23452003;NOVOMOSKOVSK-DNEPROWSKI;Moldawien;;
23452904;MINERALNAIA;Moldawien;;
23455006;PAVLOGRAD II;Moldawien;;
23455808;DNEPRODZERZINSK;Moldawien;;
23455907;TRITUZNAIA;Moldawien;;
23456004;BAGLEI;Moldawien;;
23456301;VERHNEDNEPROVSK;Moldawien;;
23457002;SHELTYE WODY;Moldawien;;
23458307;DEWLADOWO;Moldawien;;
23460006;ZAPOROJE-LEVOE;Moldawien;;
23466805;RADUSHNAIA;Moldawien;;
23467001;KRIVOI ROG;Moldawien;47.910483;33.391783
23470005;DJANKO;Moldawien;;
23471805;AWAZOWSKAIA;Moldawien;;
23472605;KRASNOPEREKOPSK;Moldawien;45.960533;33.780932
23474403;SAKI;Moldawien;;
23474601;EVPATORIJA-TOVARNAJA;Moldawien;;
23474700;EVPATORIJA-TOV. EXP/IMP;Moldawien;;
23475038;OTRADNAIA;Moldawien;;
23478008;BERDA;Moldawien;;
23480400;DONETSK;Moldawien;48.015883;37.80285
24000000;;LITAUEN;;
24005124;CANDIOLO;LITAUEN;;
24104109;JONISKIS;LITAUEN;56.236073;23.613658
24104117;SARKIAI;LITAUEN;55.348536;23.158281
24104208;MESKUICIAI;LITAUEN;56.070059;23.476307
24104307;GUBERNIJA;LITAUEN;56;23.25
24104406;SIAULIAI;LITAUEN;55.934909;23.313682
24104604;MAZAIKIAI;LITAUEN;56.309244;22.341468
24104703;BUGENIAI;LITAUEN;56.31237;22.197355
24104802;SKUODAS-EXPORT;LITAUEN;;
24104901;VIEKSNIAI;LITAUEN;56.232987;22.515217
24105007;AKMENE;LITAUEN;56.212327;22.769499
24105106;PAPILE;LITAUEN;56.151352;22.793722
24105205;KURSENAI;LITAUEN;55.997525;22.936727
24105304;KUZIAI;LITAUEN;55.983695;23.140001
24105502;SILENAI;LITAUEN;55.865193;23.41674
24105700;RADVILISKIS;LITAUEN;55.81084;23.546487
24106005;PAKRUCJIS;LITAUEN;55.982587;23.858448
24106203;TYUVENAI;LITAUEN;55.600833;23.185859
24106302;SIENIAUKIS;LITAUEN;;
24106401;VIDUKIA;LITAUEN;;
24106500;VARLAUKIS;LITAUEN;55.321934;22.672445
24106609;BATAKIAI;LITAUEN;55.353647;22.512686
24106708;TAURAGE;LITAUEN;55.250366;22.29095
24106807;LAUKSARGIAI;LITAUEN;55.207868;22.163433
24106906;STONISKIAI;LITAUEN;55.197876;21.756212
24107003;PAGEGIAI;LITAUEN;55.134312;21.904681
24107102;SKUODAS;LITAUEN;56.270217;21.521433
24107144;DARBENAI;LITAUEN;56.023255;21.255834
24107201;PAVENCIAI;LITAUEN;55.97941;22.935952
24107300;TRYSKIAI;LITAUEN;56.056001;22.582573
24107409;TELSIAI;LITAUEN;55.986978;22.248553
24107508;PLUNGE;LITAUEN;55.910421;21.856253
24107607;SATEIKIAI;LITAUEN;55.998389;21.678715
24107706;KULUPENAI;LITAUEN;55.959328;21.481252
24107805;KRETINGA;LITAUEN;55.883842;21.235092
24107904;PAGEGIAI-EXPORT;LITAUEN;;
24108001;KLAIPEDA;LITAUEN;55.703295;21.1455
24108100;KLAIPEDA-EXPORT;LITAUEN;55.706743;21.133782
24108209;DRAUGYSTE;LITAUEN;56.023195;24.805351
24108308;DRAUGYSTE (PERKELA);LITAUEN;55.660758;21.160674
24108407;RIMKAI;LITAUEN;55.071183;24.231003
24108506;PRIEKULE;LITAUEN;55.548611;21.325514
24108605;VILKYCIAI;LITAUEN;55.516636;21.394703
24108704;SILUTE;LITAUEN;55.350414;21.465986
24110809;BEZDONYS;LITAUEN;54.803362;25.51622
24110908;SKERSABALIAI;LITAUEN;54.861485;25.568824
24111005;PABRADE;LITAUEN;54.98047;25.761371
24111104;DIDZIASALIS-EXPORT;LITAUEN;55.317493;26.676476
24111203;DIDZIASALIS;LITAUEN;55.317493;26.676476
24111302;ADUTISKIS;LITAUEN;55.15942;26.584677
24111500;SVENCIONELIAI;LITAUEN;55.164222;26.002936
24111708;UTENA;LITAUEN;55.50004;25.609385
24112003;TURMANTAS-EXPORT;LITAUEN;55.694216;26.459995
24112102;IGNALINA;LITAUEN;55.334688;26.165916
24112201;DUEKSTAS;LITAUEN;;
24112300;TURMANTAS;LITAUEN;55.665558;26.439648
24114801;OBELIAI;LITAUEN;55.943607;25.803733
24114900;ROKISKIS;LITAUEN;55.955504;25.585925
24115006;PANEMUNELIS;LITAUEN;55.90653;25.390311
24115105;SKAPISKIS;LITAUEN;55.894572;25.202496
24115204;KUPISKIS;LITAUEN;55.838839;24.980148
24115303;SUBACIUS;LITAUEN;55.767723;24.750214
24115402;PANEVEZYS;LITAUEN;55.734792;24.357477
24116202;GUSTONYS;LITAUEN;55.737961;24.164648
24116301;SEDUVA;LITAUEN;55.747979;23.757328
24116608;DOTNUVA;LITAUEN;55.366082;23.886785
24116707;BAISOGALA;LITAUEN;55.638284;23.733913
24120006;VILNIUS;LITAUEN;54.677778;25.273776
24120204;KENA-EXPORT;LITAUEN;54.648999;25.621686
24120303;KENA;LITAUEN;54.648999;25.621686
24120311;SHUMKAS;LITAUEN;;
24120402;NAUJOJL VILNIA;LITAUEN;54.692974;25.410569
24120436;KENA;LITAUEN;54.648999;25.621686
24120501;JASIUNAJ;LITAUEN;54.438959;25.313165
24120519;STASYLOS;LITAUEN;54.342497;25.334284
24120600;VALCIUNAI;LITAUEN;54.564269;25.266946
24120709;KIRTIMAI;LITAUEN;54.75196;25.525484
24120808;PANERIAI;LITAUEN;54.786093;24.913809
24120907;LENTVARIS;LITAUEN;54.647436;25.04349
24121004;VAIDOTAI;LITAUEN;54.601217;25.175543
24121103;STASILOS-EKS.;LITAUEN;;
24121301;DRUSKININKAI;LITAUEN;54.004907;23.986428
24121400;MARCINKONYS-EXPORT;LITAUEN;54.053577;24.406916
24121509;MARCINKONYS;LITAUEN;54.053577;24.406916
24121608;VARENA;LITAUEN;54.220333;24.578997
24122200;MATUIZOS;LITAUEN;54.275;24.681802
24122309;VALKININKAI;LITAUEN;54.358328;24.840883
24122408;RUEDISKES;LITAUEN;54.516755;24.824917
24122507;SENIEJI TRAKAI;LITAUEN;54.608451;24.98177
24122705;VIEVIS;LITAUEN;54.773831;24.813389
24122804;KAISIADORYS;LITAUEN;54.858867;24.427793
24122903;PRAVIENISKES;LITAUEN;54.901012;24.218367
24123109;KAUNAS;LITAUEN;54.903093;23.901162
24123208;MAURUCIAI;LITAUEN;54.784161;23.776562
24123307;MOCKAVA;LITAUEN;54.310232;23.302665
24123406;KAZLU RUDA;LITAUEN;54.748395;23.491054
24123604;ALYTUS;LITAUEN;54.390827;24.044011
24123802;SESTOKAI;LITAUEN;54.356119;23.457082
24123901;KALVARIJA;LITAUEN;54.415651;23.223695
24124008;MARIJAMPOLE;LITAUEN;54.555393;23.362615
24124107;PILVISKIAI;LITAUEN;54.717919;23.225596
24124206;VILKAVISKIS;LITAUEN;54.651945;23.035155
24124305;KYBARTAI;LITAUEN;54.642717;22.772314
24124404;KIBARTA-EKS.;LITAUEN;;
24124503;GAIZIUNAI;LITAUEN;55.037715;24.330002
24124602;KALNENAI;LITAUEN;56.308742;22.305274
24124701;JONAVS;LITAUEN;54.916673;23.912297
24124800;RIZGONYS;LITAUEN;;
24125005;KEDAINIAI;LITAUEN;55.288131;23.957728
24125203;SILAINIAI;LITAUEN;54.925508;23.884388
24125500;RADVILISKIS;LITAUEN;55.765507;23.605164
24125609;SILENAI;LITAUEN;55.865193;23.41674
24125708;SIAULIAI;LITAUEN;55.934909;23.313682
24125807;GUBERNIJA;LITAUEN;56;23.25
24126003;JONISKIS;LITAUEN;56.25089;23.610818
24126300;BUGENIAI;LITAUEN;56.31237;22.197355
24126409;MAZEIKIAI;LITAUEN;56.309244;22.341468
24126706;AKMENE;LITAUEN;56.212327;22.769499
24127001;KUZIAI;LITAUEN;55.983695;23.140001
24127100;SEDUVA;LITAUEN;55.738292;23.77939
24127209;GUSTONYS;LITAUEN;55.737961;24.164648
24127308;PANEVEZYS;LITAUEN;55.734792;24.357477
24127407;SUBACIUS;LITAUEN;55.767723;24.750214
24127506;KUPISKIS;LITAUEN;55.838839;24.980148
24127803;ROKISKIS;LITAUEN;55.955504;25.585925
24128207;BEZDONYS;LITAUEN;54.803362;25.51622
24128405;PABRADE;LITAUEN;54.960442;25.73585
24128504;SVENCIONELIAI;LITAUEN;55.164222;26.002936
24128603;IGNALINA;LITAUEN;55.334688;26.165916
24128702;UTENA;LITAUEN;55.50004;25.609385
24128900;DUKSTAS;LITAUEN;55.498211;26.284702
24129106;TURMANTAS;LITAUEN;55.694216;26.459995
24999995;;LITAUEN;;
25000000;;LETTLAND;;
25086215;LUGAZI;LETTLAND;57.765161;25.951531
25086405;STRENCI;LETTLAND;57.630161;25.692493
25086504;VALMIERA;LETTLAND;57.538466;25.426362
25086603;LODE;LETTLAND;58.00835;25.380148
25086702;CESIS;LETTLAND;57.308611;25.266872
25086900;AMATA;LETTLAND;57.209752;25.305354
25087106;PIEBALGA;LETTLAND;57.151334;25.991982
25087205;RANKA;LETTLAND;57.21093;26.184552
25087304;LIZUMS;LETTLAND;57.188033;26.370253
25087403;TIRZA;LETTLAND;57.141217;26.428336
25087502;GULBENE;LETTLAND;57.171482;26.752254
25087700;BALVI;LETTLAND;57.132418;27.265587
25087809;KUPRAVA;LETTLAND;57.231532;27.462602
25087908;ZIGURI;LETTLAND;57.265058;27.666126
25088203;ALUKSNE;LETTLAND;57.420788;27.051349
25089409;RUJIANA;LETTLAND;;
25089508;MAZSALACA;LETTLAND;57.860649;25.055591
25089607;ALOJA;LETTLAND;57.767136;24.877084
25089706;PUIKULE;LETTLAND;57.687149;24.882699
25089805;LIMBAZI;LETTLAND;57.512983;24.721996
25090001;SKIROTAVA;LETTLAND;56.917208;24.208085
25090407;RIGA-PRECU I;LETTLAND;56.92254;24.21701
25090506;RIGA-KRASTA;LETTLAND;56.93393;24.14119
25091009;TORMAKALNS;LETTLAND;56.930399;24.099982
25091108;BALOZI;LETTLAND;56.869159;24.12987
25091405;MEITENE-EXPORT;LETTLAND;;
25091504;OLAINE;LETTLAND;56.789674;23.92958
25091603;CENA;LETTLAND;56.71582;23.836253
25091702;MEITENE;LETTLAND;56.408955;23.680815
25091801;JELGAVA;LETTLAND;56.651109;23.721354
25091900;DAUGAVA;LETTLAND;55.821931;26.485912
